{"last_updated":1583525670,"ttl":30,"data":{"stations":[{"station_id":"2","name":"002 - Retiro I","physical_configuration":"SMARTLITMAPFRAME","lat":-34.5924233,"lon":-58.3747151,"altitude":0.0,"address":"Ramos Mejia, Jose Maria, Dr. Av. & Del Libertador Av.","post_code":"11111","capacity":20,"rental_methods":["KEY","TRANSITCARD","PHONE"],"groups":["RETIRO"],"obcn":"","nearby_distance":1000.0},{"station_id":"3","name":"003 - ADUANA","physical_configuration":"SMARTLITMAPFRAME","lat":-34.611032,"lon":-58.3682604,"altitude":0.0,"address":"Moreno & Av Paseo Colon","cross_street":"Moreno & Av Paseo Colon","post_code":"11111","capacity":20,"rental_methods":["KEY","TRANSITCARD","PHONE"],"groups":["MONSERRAT"],"nearby_distance":1000.0},{"station_id":"4","name":"004 - Plaza Roma","physical_configuration":"SMARTLITMAPFRAME","lat":-34.6017255,"lon":-58.3687628,"altitude":0.0,"address":"Lavalle & Bouchard","post_code":"11111","capacity":20,"rental_methods":["KEY","TRANSITCARD","PHONE"],"groups":["SAN NICOLAS"],"obcn":"","nearby_distance":1000.0},{"station_id":"5","name":"005 - Plaza Italia","physical_configuration":"SMARTLITMAPFRAME","lat":-34.5805497,"lon":-58.4209542,"altitude":0.0,"address":"Av. Sarmiento 2601","post_code":"1111","capacity":40,"rental_methods":["KEY","TRANSITCARD","PHONE"],"groups":["PALERMO"],"obcn":"","nearby_distance":1000.0},{"station_id":"6","name":"006 - Parque Lezama","physical_configuration":"SMARTLITMAPFRAME","lat":-34.628526,"lon":-58.369758,"altitude":0.0,"address":"Avenida Martin Garcia, 295","post_code":"1111","capacity":20,"rental_methods":["KEY","TRANSITCARD","PHONE"],"groups":["SAN TELMO"],"obcn":"","nearby_distance":1000.0},{"station_id":"7","name":"007 - OBELISCO","physical_configuration":"SMARTLITMAPFRAME","lat":-34.606498,"lon":-58.381098,"altitude":0.0,"address":"CARLOS PELEGRINI 215","cross_street":"CARLOS PELEGRINI 215","post_code":"11111","capacity":16,"rental_methods":["KEY","TRANSITCARD","PHONE"],"groups":["SAN NICOLAS"],"nearby_distance":1000.0},{"station_id":"8","name":"008 - Congreso","physical_configuration":"SMARTLITMAPFRAME","lat":-34.6094218,"lon":-58.3893364,"altitude":0.0,"address":"Cevallos, Virrey& Yrigoyen, Hipolito Av.","post_code":"11111","capacity":24,"rental_methods":["KEY","TRANSITCARD","PHONE"],"groups":["SAN NICOLAS"],"obcn":"","nearby_distance":1000.0},{"station_id":"9","name":"009 - Parque Las Heras","physical_configuration":"SMARTLITMAPFRAME","lat":-34.585443,"lon":-58.407741,"altitude":0.0,"address":"2300 Diaz, Cnel. Av. & French","post_code":"11111","capacity":23,"rental_methods":["KEY","TRANSITCARD","PHONE"],"groups":["PALERMO"],"obcn":"","nearby_distance":1000.0},{"station_id":"11","name":"011 - Tribunales","physical_configuration":"SMARTLITMAPFRAME","lat":-34.6011762,"lon":-58.3850791,"altitude":0.0,"address":"600 Talcahuano","cross_street":"Talcahuano & Tucuman","post_code":"11111","capacity":20,"rental_methods":["KEY","TRANSITCARD","PHONE"],"groups":["SAN NICOLAS"],"nearby_distance":1000.0},{"station_id":"12","name":"012 - Plaza Vicente Lopez","physical_configuration":"SMARTLITMAPFRAME","lat":-34.5927096,"lon":-58.388807,"altitude":0.0,"address":"Parana & Juncal","post_code":"11111","capacity":16,"rental_methods":["KEY","TRANSITCARD","PHONE"],"groups":["RECOLETA"],"obcn":"","nearby_distance":1000.0},{"station_id":"13","name":"013 - ONCE","physical_configuration":"SMARTLITMAPFRAME","lat":-34.61009,"lon":-58.406,"altitude":0.0,"address":"Av. Pueyrredon & Av. Rivadavia","cross_street":"Av. Pueyrredon & Av. Rivadavia","post_code":"1111","capacity":30,"rental_methods":["KEY","TRANSITCARD","PHONE"],"groups":["BALVANERA"],"nearby_distance":1000.0},{"station_id":"14","name":"014 - Pacifico","physical_configuration":"SMARTLITMAPFRAME","lat":-34.577424,"lon":-58.426387,"altitude":0.0,"address":"Santa Fe Av. & Bullrich, Int. Av.","post_code":"11111","capacity":30,"rental_methods":["KEY","TRANSITCARD","PHONE"],"groups":["PALERMO"],"obcn":"","nearby_distance":1000.0},{"station_id":"15","name":"015 - JUANA MANSO II","physical_configuration":"SMARTLITMAPFRAME","lat":-34.6004,"lon":-58.3636706,"altitude":0.0,"address":"Juana Manso & Emma de la Barra","cross_street":"Juana Manso & Emma de la Barra","post_code":"1111","capacity":20,"rental_methods":["KEY","TRANSITCARD","PHONE"],"groups":["PUERTO MADERO"],"nearby_distance":1000.0},{"station_id":"17","name":"017 - Plaza Almagro","physical_configuration":"SMARTLITMAPFRAME","lat":-34.6064101,"lon":-58.4187306,"altitude":0.0,"address":"441 Bulnes & Peron, Juan Domingo, Tte. General","post_code":"11111","capacity":20,"rental_methods":["KEY","TRANSITCARD","PHONE"],"groups":["ALMAGRO"],"obcn":"","nearby_distance":1000.0},{"station_id":"19","name":"019 - PLAZA SAN MARTIN","physical_configuration":"SMARTLITMAPFRAME","lat":-34.5956027,"lon":-58.3776353,"altitude":0.0,"address":"Av. Santa Fe 750 & Maipu","cross_street":"Av. Santa Fe 750 & Maipu","post_code":"11111","capacity":24,"rental_methods":["KEY","TRANSITCARD","PHONE"],"groups":["RETIRO"],"nearby_distance":1000.0},{"station_id":"20","name":"020 - Distrito Audiovisual","physical_configuration":"SMARTLITMAPFRAME","lat":-34.5798619,"lon":-58.4417756,"altitude":0.0,"address":"Zapiola & Dorrego","post_code":"11111","capacity":20,"rental_methods":["KEY","TRANSITCARD","PHONE"],"groups":["COLEGIALES"],"obcn":"","nearby_distance":1000.0},{"station_id":"21","name":"021 - Parque Patricios","physical_configuration":"SMARTLITMAPFRAME","lat":-34.640111,"lon":-58.406432,"altitude":0.0,"address":"Iguazu & Uspallata","post_code":"1111","capacity":24,"rental_methods":["KEY","TRANSITCARD","PHONE"],"groups":["PARQUE PATRICIOS"],"obcn":"","nearby_distance":1000.0},{"station_id":"22","name":"022 - Arenales","physical_configuration":"SMARTLITMAPFRAME","lat":-34.5938629,"lon":-58.3825498,"altitude":0.0,"address":"Cerrito & Arenales","cross_street":"Cerrito & Arenales","post_code":"11111","capacity":20,"rental_methods":["KEY","TRANSITCARD","PHONE"],"groups":["RETIRO"],"nearby_distance":1000.0},{"station_id":"23","name":"023 - Suipacha","physical_configuration":"SMARTLITMAPFRAME","lat":-34.600139,"lon":-58.379836,"altitude":0.0,"address":"Suipacha & Viamonte, 709","post_code":"11111","capacity":11,"rental_methods":["KEY","TRANSITCARD","PHONE"],"groups":["SAN NICOLAS"],"obcn":"","nearby_distance":1000.0},{"station_id":"24","name":"024 - ALSINA","physical_configuration":"SMARTLITMAPFRAME","lat":-34.610583,"lon":-58.3808943,"altitude":0.0,"address":"Adolfo Alsina& Bernardo De Irigoyen","cross_street":"Adolfo Alsina& Bernardo De Irigoyen","post_code":"11111","capacity":18,"rental_methods":["KEY","TRANSITCARD","PHONE"],"groups":["MONSERRAT"],"nearby_distance":1000.0},{"station_id":"25","name":"025 - Plaza Guemes","physical_configuration":"SMARTLITMAPFRAME","lat":-34.5894269,"lon":-58.4161178,"altitude":0.0,"address":"Salguero, Jeronimo & Mansilla, Lucio Norberto, General","post_code":"11111","capacity":24,"rental_methods":["KEY","TRANSITCARD","PHONE"],"groups":["PALERMO"],"obcn":"","nearby_distance":1000.0},{"station_id":"26","name":"026 - JUANA MANSO I","physical_configuration":"SMARTLITMAPFRAME","lat":-34.600752,"lon":-58.3638723,"altitude":0.0,"address":"Manso Juana & De La Barra, Emma","post_code":"11111","capacity":24,"rental_methods":["KEY","TRANSITCARD","PHONE"],"groups":["PUERTO MADERO"],"obcn":"","nearby_distance":1000.0},{"station_id":"27","name":"027 - Montevideo","physical_configuration":"SMARTLITMAPFRAME","lat":-34.599068,"lon":-58.3900887,"altitude":0.0,"address":"Cordoba Av. & Montevideo","post_code":"1111","capacity":16,"rental_methods":["KEY","TRANSITCARD","PHONE"],"groups":["SAN NICOLAS"],"obcn":"","nearby_distance":1000.0},{"station_id":"28","name":"028 - Plaza Boedo","physical_configuration":"SMARTLITMAPFRAME","lat":-34.6231273,"lon":-58.4127377,"altitude":0.0,"address":"3310 Calvo, Carlos & Sanchez De Loria","post_code":"1111","capacity":15,"rental_methods":["KEY","TRANSITCARD","PHONE"],"groups":["SAN CRISTOBAL"],"obcn":"","nearby_distance":1000.0},{"station_id":"29","name":"029 - Parque Centenario","physical_configuration":"SMARTLITMAPFRAME","lat":-34.6079414,"lon":-58.4335573,"altitude":0.0,"address":"Av. Patricias Argentinas & Estivao","post_code":"11111","capacity":30,"rental_methods":["KEY","TRANSITCARD","PHONE"],"groups":["CABALLITO"],"obcn":"","nearby_distance":1000.0},{"station_id":"30","name":"030 - Peña","physical_configuration":"SMARTLITMAPFRAME","lat":-34.5908211,"lon":-58.3973698,"altitude":0.0,"address":"Peña & Azcuenaga","post_code":"11111","capacity":20,"rental_methods":["KEY","TRANSITCARD","PHONE"],"groups":["RECOLETA"],"obcn":"","nearby_distance":1000.0},{"station_id":"31","name":"031 - Padilla","physical_configuration":"SMARTLITMAPFRAME","lat":-34.6032081,"lon":-58.4396457,"altitude":0.0,"address":"Padilla & Alvarez, Julian","post_code":"11111","capacity":20,"rental_methods":["KEY","TRANSITCARD","PHONE"],"groups":["VILLA CRESPO"],"obcn":"","nearby_distance":1000.0},{"station_id":"32","name":"032 - Catedral","physical_configuration":"SMARTLITMAPFRAME","lat":-34.6072074,"lon":-58.3735984,"altitude":0.0,"address":"67 San Martin","post_code":"11111","capacity":16,"rental_methods":["KEY","TRANSITCARD","PHONE"],"groups":["SAN NICOLAS"],"obcn":"","nearby_distance":1000.0},{"station_id":"33","name":"033 - Facultad de Medicina","physical_configuration":"SMARTLITMAPFRAME","lat":-34.5970909,"lon":-58.3989807,"altitude":0.0,"address":"Pres. José Evaristo Uriburu 987","cross_street":"Uriburu Jose E., Pres. & Alvear, Marcelo T. De","post_code":"11111","capacity":20,"rental_methods":["KEY","TRANSITCARD","PHONE"],"groups":["RECOLETA"],"obcn":"","nearby_distance":1000.0},{"station_id":"35","name":"035 - INGENIERO BUTTY","physical_configuration":"SMARTLITMAPFRAME","lat":-34.5964246,"lon":-58.371847,"altitude":0.0,"address":"Ing. E. Butty 291","cross_street":"Ing. E. Butty 291 &  Av Leandro N.  Alem","post_code":"11111","capacity":30,"rental_methods":["KEY","TRANSITCARD","PHONE"],"groups":["RETIRO"],"nearby_distance":1000.0},{"station_id":"36","name":"036 - MAIPÚ","physical_configuration":"SMARTLITMAPFRAME","lat":-34.6045481,"lon":-58.3767677,"altitude":0.0,"address":"MAIPÙ 300","cross_street":"Maipu 300 & Sarmiento","post_code":"11111","capacity":16,"rental_methods":["KEY","TRANSITCARD","PHONE"],"groups":["SAN NICOLAS"],"nearby_distance":1000.0},{"station_id":"38","name":"038 - Plaza Libertad","physical_configuration":"SMARTLITMAPFRAME","lat":-34.5970497,"lon":-58.3828403,"altitude":0.0,"address":"Cerrito 990 y Av. Marcelo T. De Alvear","post_code":"11111","capacity":19,"rental_methods":["KEY","TRANSITCARD","PHONE"],"groups":["RETIRO"],"obcn":"","nearby_distance":1000.0},{"station_id":"39","name":"039 - CONGRESO II","physical_configuration":"SMARTLITMAPFRAME","lat":-34.6092213,"lon":-58.3876925,"altitude":0.0,"address":"Rivadavia Av. & Parana","cross_street":"Rivadavia Av. & Parana","post_code":"1111","capacity":20,"rental_methods":["KEY","TRANSITCARD","PHONE"],"groups":["MONSERRAT"],"nearby_distance":1000.0},{"station_id":"40","name":"040 - Sarmiento","physical_configuration":"SMARTLITMAPFRAME","lat":-34.604461,"lon":-58.373499,"altitude":0.0,"address":"Sarmiento 481","cross_street":"Sarmiento & San Martin","post_code":"C1041","capacity":16,"rental_methods":["KEY","TRANSITCARD","PHONE"],"groups":["SAN NICOLAS"],"nearby_distance":1000.0},{"station_id":"41","name":"041 - Urquiza y Rondeau","physical_configuration":"SMARTLITMAPFRAME","lat":-34.6364511,"lon":-58.4076348,"altitude":0.0,"address":"Urquiza, Gral. & Rondeau","cross_street":"Urquiza, Gral. & Rondeau","post_code":"1111","capacity":20,"rental_methods":["KEY","TRANSITCARD","PHONE"],"groups":["PARQUE PATRICIOS"],"nearby_distance":1000.0},{"station_id":"42","name":"042 - Diagonal Norte","physical_configuration":"SMARTLITMAPFRAME","lat":-34.6046074,"lon":-58.3800307,"altitude":0.0,"address":"Saenz Peña 938, Roque, Pres. Diagonal Norte Av. & Suipacha","post_code":"11111","capacity":17,"rental_methods":["KEY","TRANSITCARD","PHONE"],"groups":["SAN NICOLAS"],"obcn":"","nearby_distance":1000.0},{"station_id":"43","name":"334 - CENTRO DE EXPOSICIONES","physical_configuration":"SMARTLITMAPFRAME","lat":-34.583918,"lon":-58.3900194,"altitude":0.0,"address":"2133 Figueroa Alcorta","post_code":"1111","capacity":16,"rental_methods":["KEY","TRANSITCARD","PHONE"],"groups":["RECOLETA"],"nearby_distance":1000.0},{"station_id":"44","name":"044 - Ecoparque","physical_configuration":"SMARTLITMAPFRAME","lat":-34.5755148,"lon":-58.4138829,"altitude":0.0,"address":"Av. Del Libertador, 3260","post_code":"111","capacity":20,"rental_methods":["KEY","TRANSITCARD","PHONE"],"groups":["PALERMO"],"obcn":"","nearby_distance":1000.0},{"station_id":"45","name":"045 - Uruguay","physical_configuration":"SMARTLITMAPFRAME","lat":-34.6018635,"lon":-58.3866934,"altitude":0.0,"address":"561 Uruguay & Av. Tucuman","post_code":"111","capacity":19,"rental_methods":["KEY","TRANSITCARD","PHONE"],"groups":["SAN NICOLAS"],"obcn":"","nearby_distance":1000.0},{"station_id":"46","name":"046 - Chile","physical_configuration":"SMARTLITMAPFRAME","lat":-34.6163012,"lon":-58.3743749,"altitude":0.0,"address":"Calle Perú, 718","post_code":"1111","capacity":18,"rental_methods":["KEY","TRANSITCARD","PHONE"],"groups":["SAN TELMO"],"obcn":"","nearby_distance":1000.0},{"station_id":"47","name":"047 - Colegio Nacional de Buenos Aires","physical_configuration":"SMARTLITMAPFRAME","lat":-34.6117408,"lon":-58.3733149,"altitude":0.0,"address":"306 Bolivar & Moreno","cross_street":"Bolivar & Moreno","post_code":"11111","capacity":16,"rental_methods":["KEY","TRANSITCARD","PHONE"],"groups":["MONSERRAT"],"nearby_distance":1000.0},{"station_id":"48","name":"034 - Colonia Express","physical_configuration":"SMARTLITMAPFRAME","lat":-34.623937,"lon":-58.362004,"altitude":0.0,"address":"150 Dellepiane Y Pedro de Mendoza","cross_street":"paseo del bajo","post_code":"1111","capacity":16,"rental_methods":["KEY","TRANSITCARD","PHONE"],"groups":["BOCA"],"nearby_distance":1000.0},{"station_id":"49","name":"049 - 33 Orientales","physical_configuration":"SMARTLITMAPFRAME","lat":-34.6290527,"lon":-58.422611,"altitude":0.0,"address":"Constitucion & Treinta Y Tres Orientales","post_code":"11111","capacity":20,"rental_methods":["KEY","TRANSITCARD","PHONE"],"groups":["BOEDO"],"obcn":"","nearby_distance":1000.0},{"station_id":"50","name":"050 - Hospital Rivadavia","physical_configuration":"SMARTLITMAPFRAME","lat":-34.5837348,"lon":-58.4010798,"altitude":0.0,"address":"2516 Pereyra Lucena","cross_street":"Pereyra Lucena & Av. General Las Heras","post_code":"11111","capacity":20,"rental_methods":["KEY","TRANSITCARD","PHONE"],"groups":["PALERMO"],"nearby_distance":1000.0},{"station_id":"51","name":"051 - TUCUMAN","physical_configuration":"SMARTLITMAPFRAME","lat":-34.6014776,"lon":-58.3821261,"altitude":0.0,"address":"Tucuman & 9 De Julio Av.","cross_street":"Tucuman & 9 De Julio Av.","post_code":"1111","capacity":12,"rental_methods":["KEY","TRANSITCARD","PHONE"],"groups":["SAN NICOLAS"],"nearby_distance":1000.0},{"station_id":"52","name":"052 - SANCHEZ DE BUSTAMANTE","physical_configuration":"SMARTLITMAPFRAME","lat":-34.606682,"lon":-58.414851,"altitude":0.0,"address":"212 Sanchez De Bustamante","cross_street":"212 Sanchez De Bustamante y Peron","post_code":"C1173","capacity":20,"rental_methods":["KEY","TRANSITCARD","PHONE"],"groups":["ALMAGRO"],"nearby_distance":1000.0},{"station_id":"53","name":"053 - Ricardo Rojas","physical_configuration":"SMARTLITMAPFRAME","lat":-34.5952579,"lon":-58.3743514,"altitude":0.0,"address":"1068 San Martin","cross_street":"San Martin & Rojas, Ricardo, Dr.","post_code":"11111","capacity":20,"rental_methods":["KEY","TRANSITCARD","PHONE"],"groups":["RETIRO"],"nearby_distance":1000.0},{"station_id":"54","name":"054 - Acuña de Figueroa","physical_configuration":"SMARTLITMAPFRAME","lat":-34.5981183,"lon":-58.4219844,"altitude":0.0,"address":"Lavalle & Acuña De Figueroa, Francisco","post_code":"11111","capacity":20,"rental_methods":["KEY","TRANSITCARD","PHONE"],"groups":["ALMAGRO"],"obcn":"","nearby_distance":1000.0},{"station_id":"55","name":"055 - Bouchard","physical_configuration":"SMARTLITMAPFRAME","lat":-34.5994122,"lon":-58.36966404,"altitude":0.0,"address":"Viamonte 101","cross_street":"Viamonte 101& Bouchard","post_code":"11111","capacity":20,"rental_methods":["KEY","TRANSITCARD","PHONE"],"groups":["SAN NICOLAS"],"nearby_distance":1000.0},{"station_id":"56","name":"056 - Plaza Palermo Viejo","physical_configuration":"SMARTLITMAPFRAME","lat":-34.588567,"lon":-58.425999,"altitude":0.0,"address":"Costa Rica & Armenia","post_code":"11111","capacity":16,"rental_methods":["KEY","TRANSITCARD","PHONE"],"groups":["PALERMO"],"obcn":"","nearby_distance":1000.0},{"station_id":"57","name":"057 - BELGRANO","physical_configuration":"SMARTLITMAPFRAME","lat":-34.6134468,"lon":-58.3706051,"altitude":0.0,"address":"Balcarce 482","cross_street":"Balcarce 482& Av Republica Bolivariana de Venezuela","post_code":"1111","capacity":16,"rental_methods":["KEY","TRANSITCARD","PHONE"],"groups":["MONSERRAT"],"nearby_distance":1000.0},{"station_id":"58","name":"058 - Ministro Carranza","physical_configuration":"SMARTLITMAPFRAME","lat":-34.5752773,"lon":-58.4346883,"altitude":0.0,"address":"Santa Fe Av. & Dorrego","post_code":"11111","capacity":20,"rental_methods":["KEY","TRANSITCARD","PHONE"],"groups":["PALERMO"],"obcn":"","nearby_distance":1000.0},{"station_id":"59","name":"018 - Independencia","physical_configuration":"SMARTLITMAPFRAME","lat":-34.617771,"lon":-58.3804546,"altitude":0.0,"address":"Idependencia y Bernardo de Irigoyen","post_code":"11111","capacity":20,"rental_methods":["KEY","TRANSITCARD","PHONE"],"groups":["MONSERRAT"],"nearby_distance":1000.0},{"station_id":"60","name":"060 - 25 De Mayo","physical_configuration":"SMARTLITMAPFRAME","lat":-34.6016509,"lon":-58.371079,"altitude":0.0,"address":"527 25 De Mayo","cross_street":"25 De Mayo & Lavalle","post_code":"11111","capacity":19,"rental_methods":["KEY","TRANSITCARD","PHONE"],"groups":["SAN NICOLAS"],"nearby_distance":1000.0},{"station_id":"62","name":"062 - Córdoba","physical_configuration":"SMARTLITMAPFRAME","lat":-34.5985102,"lon":-58.3768501,"altitude":0.0,"address":"820 Maipú","cross_street":"Maipú &  Av. Córdoba","post_code":"11111","capacity":20,"rental_methods":["KEY","TRANSITCARD","PHONE"],"groups":["RETIRO"],"nearby_distance":1000.0},{"station_id":"63","name":"063 - Reconquista","physical_configuration":"SMARTLITMAPFRAME","lat":-34.5986,"lon":-58.373062,"altitude":0.0,"address":"Reconquista 76 & Cordoba Av.","post_code":"111","capacity":20,"rental_methods":["KEY","TRANSITCARD","PHONE"],"groups":["SAN NICOLAS"],"obcn":"","nearby_distance":1000.0},{"station_id":"64","name":"064 - RIOBAMBA","physical_configuration":"SMARTLITMAPFRAME","lat":-34.5936508,"lon":-58.3941087,"altitude":0.0,"address":"Riobamba 1264 & Juncal","cross_street":"Riobamba 1264 & Juncal","post_code":"11111","capacity":20,"rental_methods":["KEY","TRANSITCARD","PHONE"],"groups":["RECOLETA"],"nearby_distance":1000.0},{"station_id":"65","name":"065 - Julián Álvarez","physical_configuration":"SMARTLITMAPFRAME","lat":-34.5873124,"lon":-58.4157873,"altitude":0.0,"address":"3822 Guemes","cross_street":"Guemes & Julian Alvarez","post_code":"11111","capacity":20,"rental_methods":["KEY","TRANSITCARD","PHONE"],"groups":["PALERMO"],"nearby_distance":1000.0},{"station_id":"66","name":"066 - Billinghurst","physical_configuration":"SMARTLITMAPFRAME","lat":-34.5945475,"lon":-58.4138713,"altitude":0.0,"address":"3508 Carcova","cross_street":"De La Carcova & Soler","post_code":"11111","capacity":19,"rental_methods":["KEY","TRANSITCARD","PHONE"],"groups":["RECOLETA"],"nearby_distance":1000.0},{"station_id":"68","name":"068 - Rivarola","physical_configuration":"SMARTLITMAPFRAME","lat":-34.6065099,"lon":-58.385434,"altitude":0.0,"address":"175  Dr. Rodolfo Rivarola","cross_street":"Dr. Rodolfo Rivarola &  Tte. General Juan Domingo Perón","post_code":"11111","capacity":19,"rental_methods":["KEY","TRANSITCARD","PHONE"],"groups":["SAN NICOLAS"],"nearby_distance":1000.0},{"station_id":"69","name":"069 - Ecuador","physical_configuration":"SMARTLITMAPFRAME","lat":-34.5961006,"lon":-58.4046092,"altitude":0.0,"address":"1226 Ecuador & Mansilla, Lucio Norberto, General","post_code":"111","capacity":15,"rental_methods":["KEY","TRANSITCARD","PHONE"],"groups":["RECOLETA"],"obcn":"","nearby_distance":1000.0},{"station_id":"70","name":"070 - ARAOZ","physical_configuration":"SMARTLITMAPFRAME","lat":-34.5926862,"lon":-58.4260597,"altitude":0.0,"address":"1413 Araoz & Gorriti CABA","post_code":"1111","capacity":20,"rental_methods":["KEY","TRANSITCARD","PHONE"],"groups":["PALERMO"],"nearby_distance":1000.0},{"station_id":"71","name":"071 - CERRITO","physical_configuration":"SMARTLITMAPFRAME","lat":-34.6026673,"lon":-58.3833559,"altitude":0.0,"address":"Libertad & lavalle","cross_street":"Av Pres. Roque Saenz Peña, Diagonal Norte  & Cerrito","post_code":"11111","capacity":30,"rental_methods":["KEY","TRANSITCARD","PHONE"],"groups":["SAN NICOLAS"],"nearby_distance":1000.0},{"station_id":"72","name":"072 - Venezuela","physical_configuration":"SMARTLITMAPFRAME","lat":-34.6135421,"lon":-58.3746635,"altitude":0.0,"address":"Peru 490","cross_street":"Peru 490& Republica Bolivariana De Venezuela","post_code":"11111","capacity":18,"rental_methods":["KEY","TRANSITCARD","PHONE"],"groups":["MONSERRAT"],"nearby_distance":1000.0},{"station_id":"73","name":"073 - Ruy Díaz de Guzmán","physical_configuration":"SMARTLITMAPFRAME","lat":-34.6306814,"lon":-58.3718235,"altitude":0.0,"address":"Avenida Martin Garcia y Ruy Díaz de Guzmán","post_code":"1111111","capacity":16,"rental_methods":["KEY","TRANSITCARD","PHONE"],"groups":["BOCA"],"obcn":"","nearby_distance":1000.0},{"station_id":"74","name":"074 - INSTITUTO  LELOIR","physical_configuration":"SMARTLITMAPFRAME","lat":-34.60439,"lon":-58.43454,"altitude":0.0,"address":"Juana De Ibarbourou & Av Patricias Argentinas","post_code":"1111","capacity":30,"rental_methods":["KEY","TRANSITCARD","PHONE"],"groups":["CABALLITO"],"nearby_distance":1000.0},{"station_id":"75","name":"075 - Plaza Primero de Mayo","physical_configuration":"SMARTLITMAPFRAME","lat":-34.6122976,"lon":-58.3989871,"altitude":0.0,"address":"238 Pichincha","post_code":"11111","capacity":20,"rental_methods":["KEY","TRANSITCARD","PHONE"],"groups":["BALVANERA"],"obcn":"","nearby_distance":1000.0},{"station_id":"77","name":"077 - SARANDI","physical_configuration":"SMARTLITMAPFRAME","lat":-34.6116273,"lon":-58.3947367,"altitude":0.0,"address":"176 Sarandi & Alsina, Adolfo","cross_street":"176 Sarandi & Alsina, Adolfo","post_code":"1111","capacity":19,"rental_methods":["KEY","TRANSITCARD","PHONE"],"groups":["BALVANERA"],"nearby_distance":1000.0},{"station_id":"78","name":"078 - SUIPACHA Y ARROYO","physical_configuration":"SMARTLITMAPFRAME","lat":-34.5910737,"lon":-58.3799953,"altitude":0.0,"address":"1420 Suipacha","cross_street":"Suipacha & Arroyo","post_code":"1111","capacity":20,"rental_methods":["KEY","TRANSITCARD","PHONE"],"groups":["RETIRO"],"nearby_distance":1000.0},{"station_id":"79","name":"079 - AZUCENA VILLAFLOR","physical_configuration":"SMARTLITMAPFRAME","lat":-34.61189,"lon":-58.36393,"altitude":0.0,"address":"Villaflor, Azucena & Dealessi, Pierina","cross_street":"Villaflor, Azucena & Dealessi, Pierina","post_code":"C1107CID","capacity":28,"rental_methods":["KEY","TRANSITCARD","PHONE"],"groups":["PUERTO MADERO"],"nearby_distance":1000.0},{"station_id":"80","name":"080 - DOBLAS","physical_configuration":"SMARTLITMAPFRAME","lat":-34.624435,"lon":-58.4303766,"altitude":0.0,"address":"608 Doblas & Valle","post_code":"1111","capacity":16,"rental_methods":["KEY","TRANSITCARD","PHONE"],"groups":["CABALLITO"],"nearby_distance":1000.0},{"station_id":"82","name":"082 - HOSPITAL ITALIANO","physical_configuration":"SMARTLITMAPFRAME","lat":-34.6078917,"lon":-58.4263947,"altitude":0.0,"address":"394 Rawson & Potosi","post_code":"11111","capacity":20,"rental_methods":["KEY","TRANSITCARD","PHONE"],"groups":["ALMAGRO"],"nearby_distance":1000.0},{"station_id":"83","name":"083 - Paraná","physical_configuration":"SMARTLITMAPFRAME","lat":-34.603269,"lon":-58.3893728,"altitude":0.0,"address":"1590 Lavalle","cross_street":"Lavalle & Montevideo","post_code":"11111","capacity":20,"rental_methods":["KEY","TRANSITCARD","PHONE"],"groups":["SAN NICOLAS"],"nearby_distance":1000.0},{"station_id":"84","name":"084 - Lavalle","physical_configuration":"SMARTLITMAPFRAME","lat":-34.6023203,"lon":-58.3955144,"altitude":0.0,"address":"Ayacucho 595","cross_street":"Ayacucho & Tucumán","post_code":"1111","capacity":20,"rental_methods":["KEY","TRANSITCARD","PHONE"],"groups":["BALVANERA"],"nearby_distance":1000.0},{"station_id":"85","name":"085 - AGUERO","physical_configuration":"SMARTLITMAPFRAME","lat":-34.5948057,"lon":-58.4091784,"altitude":0.0,"address":"Aguero & Mansilla, Lucio Norberto, General","cross_street":"Aguero & Mansilla, Lucio Norberto, General","post_code":"11111","capacity":20,"rental_methods":["KEY","TRANSITCARD","PHONE"],"groups":["RECOLETA"],"nearby_distance":1000.0},{"station_id":"86","name":"086 - SAAVEDRA","physical_configuration":"SMARTLITMAPFRAME","lat":-34.6212681,"lon":-58.4016808,"altitude":0.0,"address":"1019 Saavedra","cross_street":"1019 Saavedra & Calvo, Carlos","post_code":"11111","capacity":20,"rental_methods":["KEY","TRANSITCARD","PHONE"],"groups":["SAN CRISTOBAL"],"nearby_distance":1000.0},{"station_id":"87","name":"087 - Guayaquil","physical_configuration":"SMARTLITMAPFRAME","lat":-34.619845,"lon":-58.4314942,"altitude":0.0,"address":"Guayaquil & Doblas","post_code":"1111","capacity":16,"rental_methods":["KEY","TRANSITCARD","PHONE"],"groups":["CABALLITO"],"obcn":"","nearby_distance":1000.0},{"station_id":"88","name":"088 - MISIONES","physical_configuration":"SMARTLITMAPFRAME","lat":-34.612575,"lon":-58.404356,"altitude":0.0,"address":"MISIONES 209","cross_street":"MISIONES 209 & Alsina, Adolfo","post_code":"C1083","capacity":19,"rental_methods":["KEY","TRANSITCARD","PHONE"],"groups":["BALVANERA"],"nearby_distance":1000.0},{"station_id":"89","name":"089 - Cabello","physical_configuration":"SMARTLITMAPFRAME","lat":-34.5825475,"lon":-58.4056671,"altitude":0.0,"address":"3082 Cabello","post_code":"1111","capacity":20,"rental_methods":["KEY","TRANSITCARD","PHONE"],"groups":["PALERMO"],"nearby_distance":1000.0},{"station_id":"90","name":"090 - GUTIERREZ","physical_configuration":"SMARTLITMAPFRAME","lat":-34.5866324,"lon":-58.3998749,"altitude":0.0,"address":"2685 Gutierrez, Juan Maria & Aguero","cross_street":"2685 Gutierrez, Juan Maria & Aguero","post_code":"11111","capacity":20,"rental_methods":["KEY","TRANSITCARD","PHONE"],"groups":["RECOLETA"],"nearby_distance":1000.0},{"station_id":"91","name":"091 - Pasco","physical_configuration":"SMARTLITMAPFRAME","lat":-34.6174482,"lon":-58.397602,"altitude":0.0,"address":"708 Pasco & Chile","post_code":"1111","capacity":20,"rental_methods":["KEY","TRANSITCARD","PHONE"],"groups":["BALVANERA"],"obcn":"","nearby_distance":1000.0},{"station_id":"92","name":"092 - Salcedo","physical_configuration":"SMARTLITMAPFRAME","lat":-34.6316444,"lon":-58.4053386,"altitude":0.0,"address":"2908 Salcedo & Dean Funes","post_code":"111","capacity":20,"rental_methods":["KEY","TRANSITCARD","PHONE"],"groups":["PARQUE PATRICIOS"],"obcn":"","nearby_distance":1000.0},{"station_id":"93","name":"093 - CARLOS CALVO","physical_configuration":"SMARTLITMAPFRAME","lat":-34.620798,"lon":-58.3944635,"altitude":0.0,"address":"Sarandi 1010","cross_street":"1010 Sarandi & Calvo, Carlos","post_code":"1111","capacity":20,"rental_methods":["KEY","TRANSITCARD","PHONE"],"groups":["SAN CRISTOBAL"],"nearby_distance":1000.0},{"station_id":"94","name":"094 - GÚZMAN","physical_configuration":"SMARTLITMAPFRAME","lat":-34.591511,"lon":-58.449652,"altitude":0.0,"address":"Av Guzman 129 & Leiva","post_code":"1111","capacity":30,"rental_methods":["KEY","TRANSITCARD","PHONE"],"groups":["CHACARITA"],"nearby_distance":1000.0},{"station_id":"95","name":"095 - ESMERALDA","physical_configuration":"SMARTLITMAPFRAME","lat":-34.6021121,"lon":-58.3781678,"altitude":0.0,"address":"ESMERALDA 516","cross_street":"ESMERALDA 516","post_code":"1111","capacity":16,"rental_methods":["KEY","TRANSITCARD","PHONE"],"groups":["SAN NICOLAS"],"nearby_distance":1000.0},{"station_id":"96","name":"096 - Carlos Gardel","physical_configuration":"SMARTLITMAPFRAME","lat":-34.6027814,"lon":-58.4116586,"altitude":0.0,"address":"3302 Guardia Vieja & Aguero","post_code":"11111","capacity":20,"rental_methods":["KEY","TRANSITCARD","PHONE"],"groups":["BALVANERA"],"obcn":"","nearby_distance":1000.0},{"station_id":"98","name":"098 - Belgrano y roca","physical_configuration":"SMARTLITMAPFRAME","lat":-34.6127689,"lon":-58.3769407,"altitude":0.0,"address":"Av Belgrano 705","post_code":"11111","capacity":16,"rental_methods":["KEY","TRANSITCARD","PHONE"],"groups":["MONSERRAT"],"obcn":"","nearby_distance":1000.0},{"station_id":"99","name":"099 - Malabia","physical_configuration":"SMARTLITMAPFRAME","lat":-34.5960961,"lon":-58.435408,"altitude":0.0,"address":"780 Malabia & Loyola","post_code":"11111","capacity":20,"rental_methods":["KEY","TRANSITCARD","PHONE"],"groups":["VILLA CRESPO"],"obcn":"","nearby_distance":1000.0},{"station_id":"101","name":"101 - Fitz Roy","physical_configuration":"SMARTLITMAPFRAME","lat":-34.5891857,"lon":-58.4424397,"altitude":0.0,"address":"Fitz Roy  1092 & Loyola","post_code":"11111","capacity":20,"rental_methods":["KEY","TRANSITCARD","PHONE"],"groups":["CHACARITA"],"obcn":"","nearby_distance":1000.0},{"station_id":"102","name":"102 - ROSETI","physical_configuration":"SMARTLITMAPFRAME","lat":-34.5864287,"lon":-58.4458199,"altitude":0.0,"address":"50 Roseti & Dorrego Av.","post_code":"1111","capacity":12,"rental_methods":["KEY","TRANSITCARD","PHONE"],"groups":["CHACARITA"],"nearby_distance":1000.0},{"station_id":"104","name":"104 - Federico Lacroze","physical_configuration":"SMARTLITMAPFRAME","lat":-34.587617,"lon":-58.455212,"altitude":0.0,"address":"Av. Guzman 1100 & Av. Corrientes","post_code":"111111","capacity":30,"rental_methods":["KEY","TRANSITCARD","PHONE"],"groups":["CHACARITA"],"obcn":"","nearby_distance":1000.0},{"station_id":"105","name":"105 - 15 DE NOVIEMBRE","physical_configuration":"SMARTLITMAPFRAME","lat":-34.6340844,"lon":-58.4008662,"altitude":0.0,"address":"2687 15 De Noviembre De 1889 & Catamarca","cross_street":"2687 15 De Noviembre De 1889 & Catamarca","post_code":"1111","capacity":16,"rental_methods":["KEY","TRANSITCARD","PHONE"],"groups":["PARQUE PATRICIOS"],"nearby_distance":1000.0},{"station_id":"106","name":"106 - RINCÓN","physical_configuration":"SMARTLITMAPFRAME","lat":-34.6152509,"lon":-58.3958827,"altitude":0.0,"address":"Venezuela 2091","cross_street":"Venezuela 2091","post_code":"1111","capacity":19,"rental_methods":["KEY","TRANSITCARD","PHONE"],"groups":["BALVANERA"],"nearby_distance":1000.0},{"station_id":"107","name":"107 - HOSPITAL GARRAHAN","physical_configuration":"SMARTLITMAPFRAME","lat":-34.630374,"lon":-58.395852,"altitude":0.0,"address":"Brasil & Pichincha","cross_street":"Brasil & Pichincha","post_code":"1260","capacity":16,"rental_methods":["KEY","TRANSITCARD","PHONE"],"groups":["PARQUE PATRICIOS"],"nearby_distance":1000.0},{"station_id":"110","name":"110 - Guardia Vieja","physical_configuration":"SMARTLITMAPFRAME","lat":-34.601738,"lon":-58.415434,"altitude":0.0,"address":"3620 Guarda Vieja","cross_street":"Guardia Vieja & Billinghurst","post_code":"11111","capacity":20,"rental_methods":["KEY","TRANSITCARD","PHONE"],"groups":["ALMAGRO"],"nearby_distance":1000.0},{"station_id":"111","name":"111 - MACACHA GUEMES","physical_configuration":"SMARTLITMAPFRAME","lat":-34.6054877,"lon":-58.3646858,"altitude":0.0,"address":"Machaca Guemes 350","cross_street":"Macacha Guemes 350 &Pierina Dealessi","post_code":"1111","capacity":28,"rental_methods":["KEY","TRANSITCARD","PHONE"],"groups":["PUERTO MADERO"],"nearby_distance":1000.0},{"station_id":"112","name":"112 - 9 de Julio","physical_configuration":"SMARTLITMAPFRAME","lat":-34.612075,"lon":-58.380384,"altitude":0.0,"address":"Bernardo Irigoyen 320","cross_street":"Bernardo Irigoyen 320 & Moreno","post_code":"11111","capacity":16,"rental_methods":["KEY","TRANSITCARD","PHONE"],"groups":["MONSERRAT"],"nearby_distance":1000.0},{"station_id":"114","name":"114 - DELLA PAOLERA","physical_configuration":"SMARTLITMAPFRAME","lat":-34.5949745,"lon":-58.3722554,"altitude":0.0,"address":"Della Paolera 297, Carlos M. & Av. Leandro N. Alem","cross_street":"Della Paolera 297, Carlos M. & Av. Leandro N. Alem","post_code":"11111","capacity":30,"rental_methods":["KEY","TRANSITCARD","PHONE"],"groups":["RETIRO"],"nearby_distance":1000.0},{"station_id":"115","name":"115 - QUINTANA","physical_configuration":"SMARTLITMAPFRAME","lat":-34.5878001,"lon":-58.3908362,"altitude":0.0,"address":"Av Pres Manuel Quintana 600. & Haedo, Eduardo V., Pres.","cross_street":"Av Pres Manuel Quintana 600","post_code":"11111","capacity":16,"rental_methods":["KEY","TRANSITCARD","PHONE"],"groups":["RECOLETA"],"nearby_distance":1000.0},{"station_id":"116","name":"116 - HOSPITAL ALEMÁN","physical_configuration":"SMARTLITMAPFRAME","lat":-34.5921708,"lon":-58.4025894,"altitude":0.0,"address":"Beruti & Ecuador","cross_street":"Beruti & Ecuador","post_code":"1111","capacity":12,"rental_methods":["KEY","TRANSITCARD","PHONE"],"groups":["RECOLETA"],"nearby_distance":1000.0},{"station_id":"117","name":"117 - HUMBERTO 1°","physical_configuration":"SMARTLITMAPFRAME","lat":-34.6201008,"lon":-58.3741759,"altitude":0.0,"address":"Peru  1016","cross_street":"Peru  1016& Carlos Calvo","post_code":"11111","capacity":16,"rental_methods":["KEY","TRANSITCARD","PHONE"],"groups":["SAN TELMO"],"nearby_distance":1000.0},{"station_id":"118","name":"118 - MEXICO","physical_configuration":"SMARTLITMAPFRAME","lat":-34.6170196,"lon":-58.4026531,"altitude":0.0,"address":"Saavedra & Mexico","cross_street":"Saavedra & Mexico","post_code":"11111","capacity":20,"rental_methods":["KEY","TRANSITCARD","PHONE"],"groups":["BALVANERA"],"nearby_distance":1000.0},{"station_id":"119","name":"119 - EMILIO MITRE","physical_configuration":"SMARTLITMAPFRAME","lat":-34.5885608,"lon":-58.3973293,"altitude":0.0,"address":"Pacheco De Melo, Jose Andres","cross_street":"Pacheco De Melo, Jose Andres & Larrea","post_code":"11111","capacity":19,"rental_methods":["KEY","TRANSITCARD","PHONE"],"groups":["RECOLETA"],"nearby_distance":1000.0},{"station_id":"120","name":"120 - HOSPITAL RAMOS MEJIA","physical_configuration":"SMARTLITMAPFRAME","lat":-34.617509,"lon":-58.4092876,"altitude":0.0,"address":"3084 Agrelo","cross_street":"3084 Agrelo & Urquiza","post_code":"1111","capacity":19,"rental_methods":["KEY","TRANSITCARD","PHONE"],"groups":["BALVANERA"],"nearby_distance":1000.0},{"station_id":"121","name":"121 - YATAY","physical_configuration":"SMARTLITMAPFRAME","lat":-34.6011732,"lon":-58.4285093,"altitude":0.0,"address":"925 Yatay& Humahuaca","cross_street":"925 Yatay& Humahuaca","post_code":"1111","capacity":20,"rental_methods":["KEY","TRANSITCARD","PHONE"],"groups":["ALMAGRO"],"nearby_distance":1000.0},{"station_id":"122","name":"122 - COSTA RICA","physical_configuration":"SMARTLITMAPFRAME","lat":-34.5916569,"lon":-58.4204199,"altitude":0.0,"address":"Costa Rica 4090","cross_street":"Costa Rica 4090 & Acuña De Figueroa, Francisco","post_code":"1111","capacity":20,"rental_methods":["KEY","TRANSITCARD","PHONE"],"groups":["PALERMO"],"nearby_distance":1000.0},{"station_id":"124","name":"124 - UGARTECHE","physical_configuration":"SMARTLITMAPFRAME","lat":-34.580538,"lon":-58.411965,"altitude":0.0,"address":"3050 Ugarteche","cross_street":"3050 Ugarteche & Cabello","post_code":"C3123","capacity":19,"rental_methods":["KEY","TRANSITCARD","PHONE"],"groups":["PALERMO"],"nearby_distance":1000.0},{"station_id":"126","name":"126 - Ministerio de Justicia y Seguridad","physical_configuration":"SMARTLITMAPFRAME","lat":-34.6402672,"lon":-58.3692243,"altitude":0.0,"address":"Regimiento De Patricios Av. & Araoz De Lamadrid, Gregorio, Gral.","post_code":"1111","capacity":16,"rental_methods":["KEY","TRANSITCARD","PHONE"],"groups":["BOCA"],"nearby_distance":1000.0},{"station_id":"127","name":"127 - SANTOS DUMONT Y OTERO","physical_configuration":"SMARTLITMAPFRAME","lat":-34.5923884,"lon":-58.453077,"altitude":0.0,"address":"4392 Dumont, Santos & Otero","post_code":"1111","capacity":16,"rental_methods":["KEY","TRANSITCARD","PHONE"],"groups":["CHACARITA"],"nearby_distance":1000.0},{"station_id":"128","name":"128 - PARQUE DEL BAJO","physical_configuration":"SMARTLITMAPFRAME","lat":-34.6041138,"lon":-58.3689118,"altitude":0.0,"address":"Madero, Eduardo Av. & Peron, Juan Domingo, Tte. General","cross_street":"Madero, Eduardo Av. & Peron, Juan Domingo, Tte. General","post_code":"1111","capacity":19,"rental_methods":["KEY","TRANSITCARD","PHONE"],"groups":["SAN NICOLAS"],"nearby_distance":1000.0},{"station_id":"130","name":"130 - RETIRO II","physical_configuration":"SMARTLITMAPFRAME","lat":-34.5921056,"lon":-58.3745419,"altitude":0.0,"address":"Ramos Mejia, Av Dr Jose Maria Vargas& Av. Del Libertador","cross_street":"Ramos Mejia, Av Dr Jose Maria Vargas& Av. Del Libertador","post_code":"1111","capacity":40,"rental_methods":["KEY","TRANSITCARD","PHONE"],"groups":["RETIRO"],"obcn":"130","nearby_distance":1000.0},{"station_id":"131","name":"131- HOSPITAL DE CLÍNICAS","physical_configuration":"SMARTLITMAPFRAME","lat":-34.5984043,"lon":-58.3990158,"altitude":0.0,"address":"Uriburu Jose E., Pres. & Paraguay","cross_street":"Uriburu Jose E., Pres. & Paraguay","post_code":"1111","capacity":16,"rental_methods":["KEY","TRANSITCARD","PHONE"],"groups":["RECOLETA"],"nearby_distance":1000.0},{"station_id":"132","name":"132 - CORRIENTES","physical_configuration":"SMARTLITMAPFRAME","lat":-34.6033685,"lon":-58.372763,"altitude":0.0,"address":"Reconquista & Corrientes Av.","cross_street":"Reconquista & Corrientes Av.","post_code":"1111","capacity":12,"rental_methods":["KEY","TRANSITCARD","PHONE"],"groups":["SAN NICOLAS"],"nearby_distance":1000.0},{"station_id":"134","name":"134 - DON BOSCO","physical_configuration":"SMARTLITMAPFRAME","lat":-34.6118013,"lon":-58.4150532,"altitude":0.0,"address":"3490 Don Bosco","cross_street":"3490 Don Bosco & Liniers Virrey","post_code":"1111","capacity":20,"rental_methods":["KEY","TRANSITCARD","PHONE"],"groups":["ALMAGRO"],"nearby_distance":1000.0},{"station_id":"135","name":"135 - MARCELO T. DE ALVEAR","physical_configuration":"SMARTLITMAPFRAME","lat":-34.5972818,"lon":-58.3787856,"altitude":0.0,"address":"902 Esmeralda","cross_street":"Esmeralda & Paraguay","post_code":"11111","capacity":20,"rental_methods":["KEY","TRANSITCARD","PHONE"],"groups":["SAN NICOLAS"],"nearby_distance":1000.0},{"station_id":"137","name":"137 - AZOPARDO Y CHILE","physical_configuration":"SMARTLITMAPFRAME","lat":-34.6155977,"lon":-58.3674923,"altitude":0.0,"address":"AZOPARDO 700","cross_street":"AZOPARDO 700 & AV CHILE","post_code":"1111","capacity":20,"rental_methods":["KEY","TRANSITCARD","PHONE"],"groups":["MONSERRAT"],"nearby_distance":1000.0},{"station_id":"138","name":"138 - Hospital Britanico","physical_configuration":"SMARTLITMAPFRAME","lat":-34.6353595,"lon":-58.3876724,"altitude":0.0,"address":"153 Perdriel","post_code":"1111","capacity":12,"rental_methods":["KEY","TRANSITCARD","PHONE"],"groups":["BARRACAS"],"nearby_distance":1000.0},{"station_id":"141","name":"141 - SOLIS Y ALSINA","physical_configuration":"SMARTLITMAPFRAME","lat":-34.6115231,"lon":-58.3904968,"altitude":0.0,"address":"225 Solis","cross_street":"225 Solis & Alsina, Adolfo","post_code":"11111","capacity":20,"rental_methods":["KEY","TRANSITCARD","PHONE"],"groups":["MONSERRAT"],"nearby_distance":1000.0},{"station_id":"143","name":"143 - BILLINGHURST Y VALENTÍN GOMEZ","physical_configuration":"SMARTLITMAPFRAME","lat":-34.604709,"lon":-58.415807,"altitude":0.0,"address":"455 Billinghurst & Gomez, Valentin","cross_street":"455 Billinghurst & Gomez, Valentin","post_code":"C1191","capacity":20,"rental_methods":["KEY","TRANSITCARD","PHONE"],"groups":["ALMAGRO"],"nearby_distance":1000.0},{"station_id":"144","name":"144 - PUEYRREDÓN","physical_configuration":"SMARTLITMAPFRAME","lat":-34.6018744,"lon":-58.4060944,"altitude":0.0,"address":"684 Boulogne Sur Mer & Tucuman","cross_street":"684 Boulogne Sur Mer & Tucuman","post_code":"1111","capacity":20,"rental_methods":["KEY","TRANSITCARD","PHONE"],"groups":["BALVANERA"],"nearby_distance":1000.0},{"station_id":"146","name":"146 - Hospital Francés","physical_configuration":"SMARTLITMAPFRAME","lat":-34.6221118,"lon":-58.4078419,"altitude":0.0,"address":"3024 Calvo, Carlos","cross_street":"3024 Calvo, Carlos & La Rioja","post_code":"1111","capacity":20,"rental_methods":["KEY","TRANSITCARD","PHONE"],"groups":["SAN CRISTOBAL"],"nearby_distance":1000.0},{"station_id":"149","name":"149 - LIMA","physical_configuration":"SMARTLITMAPFRAME","lat":-34.6153266,"lon":-58.3813642,"altitude":0.0,"address":"México & Lima","cross_street":"México & Lima","post_code":"11111","capacity":16,"rental_methods":["KEY","TRANSITCARD","PHONE"],"groups":["MONSERRAT"],"nearby_distance":1000.0},{"station_id":"150","name":"150 - VERA PEÑALOZA","physical_configuration":"SMARTLITMAPFRAME","lat":-34.6181003,"lon":-58.3631389,"altitude":0.0,"address":"Vera Peñaloza, Rosario & Cossettini, Olga","cross_street":"Vera Peñaloza, Rosario & Cossettini, Olga","post_code":"1111","capacity":30,"rental_methods":["KEY","TRANSITCARD","PHONE"],"groups":["PUERTO MADERO"],"nearby_distance":1000.0},{"station_id":"151","name":"151 - AIME PAINÉ","physical_configuration":"SMARTLITMAPFRAME","lat":-34.6118145,"lon":-58.361285,"altitude":0.0,"address":"Villaflor, Azucena & Paine, Aime","cross_street":"Villaflor, Azucena & Paine, Aime","post_code":"11111","capacity":23,"rental_methods":["KEY","TRANSITCARD","PHONE"],"groups":["PUERTO MADERO"],"nearby_distance":1000.0},{"station_id":"152","name":"152 - JULIETA LANTERI","physical_configuration":"SMARTLITMAPFRAME","lat":-34.6181645,"lon":-58.3596311,"altitude":0.0,"address":"Vera Peñaloza, Rosario 599 & Lanteri Julieta","cross_street":"Vera Peñaloza, Rosario & Lanteri Julieta","post_code":"11111","capacity":20,"rental_methods":["KEY","TRANSITCARD","PHONE"],"groups":["PUERTO MADERO"],"nearby_distance":1000.0},{"station_id":"153","name":"153 - JUAN MANUEL DE BLANES","physical_configuration":"SMARTLITMAPFRAME","lat":-34.6307765,"lon":-58.3620701,"altitude":0.0,"address":"383 Blanes, Juan Manuel","post_code":"1111","capacity":16,"rental_methods":["KEY","TRANSITCARD","PHONE"],"groups":["BOCA"],"nearby_distance":1000.0},{"station_id":"154","name":"154 - GALLO","physical_configuration":"SMARTLITMAPFRAME","lat":-34.6005484,"lon":-58.4122849,"altitude":0.0,"address":"789 Gallo","cross_street":"189 Gallo y Tucuman","post_code":"11111","capacity":20,"rental_methods":["KEY","TRANSITCARD","PHONE"],"groups":["ALMAGRO"],"nearby_distance":1000.0},{"station_id":"155","name":"155 - Parque José Evaristo Uriburu","physical_configuration":"SMARTLITMAPFRAME","lat":-34.6409617,"lon":-58.4125606,"altitude":0.0,"address":"300 Almafuerte Av. & Los Patos","cross_street":"300 Almafuerte Av. & Los Patos","post_code":"11111","capacity":20,"rental_methods":["KEY","TRANSITCARD","PHONE"],"groups":["NUEVA POMPEYA"],"nearby_distance":1000.0},{"station_id":"156","name":"156 - Plaza Alemania","physical_configuration":"SMARTLITMAPFRAME","lat":-34.5775895,"lon":-58.4074696,"altitude":0.0,"address":"2939 Cavia","cross_street":"Cavia &  Av. Del Libertador","post_code":"11111","capacity":20,"rental_methods":["KEY","TRANSITCARD","PHONE"],"groups":["PALERMO"],"nearby_distance":1000.0},{"station_id":"158","name":"158 - VILLARROEL","physical_configuration":"SMARTLITMAPFRAME","lat":-34.592735,"lon":-58.4450697,"altitude":0.0,"address":"1321 Villarroel & Humboldt CABA","post_code":"1111","capacity":20,"rental_methods":["KEY","TRANSITCARD","PHONE"],"groups":["CHACARITA"],"nearby_distance":1000.0},{"station_id":"161","name":"161 - Humahuaca","physical_configuration":"SMARTLITMAPFRAME","lat":-34.6020779,"lon":-58.4196761,"altitude":0.0,"address":"3912 Humahuaca","cross_street":"Humahuaca &  Jeronimo Salguero","post_code":"11111","capacity":20,"rental_methods":["KEY","TRANSITCARD","PHONE"],"groups":["ALMAGRO"],"nearby_distance":1000.0},{"station_id":"162","name":"162 - LARREA Y BARTOLOMÉ MITRE","physical_configuration":"SMARTLITMAPFRAME","lat":-34.608985,"lon":-58.401924,"altitude":0.0,"address":"80 Larrea","cross_street":"80 Larrea & Mitre, Bartolome","post_code":"C1030","capacity":20,"rental_methods":["KEY","TRANSITCARD","PHONE"],"groups":["BALVANERA"],"nearby_distance":1000.0},{"station_id":"163","name":"163 - ONCE II","physical_configuration":"SMARTLITMAPFRAME","lat":-34.6095663,"lon":-58.4064308,"altitude":0.0,"address":"Bartolome Mitre & Av. Puyrredon","post_code":"11111","capacity":30,"rental_methods":["KEY","TRANSITCARD","PHONE"],"groups":["BALVANERA"],"nearby_distance":1000.0},{"station_id":"164","name":"164 - FACULTAD DE INGENERIA","physical_configuration":"SMARTLITMAPFRAME","lat":-34.6181442,"lon":-58.3669021,"altitude":0.0,"address":"Estados Unidos 21","cross_street":"Estados Unidos 21 &Av. Ing. Huergo","post_code":"11111","capacity":20,"rental_methods":["KEY","TRANSITCARD","PHONE"],"groups":["SAN TELMO"],"nearby_distance":1000.0},{"station_id":"165","name":"165 - PLAZA MONSEÑOR MIGUEL DE ANDREA","physical_configuration":"SMARTLITMAPFRAME","lat":-34.597048,"lon":-58.407614,"altitude":0.0,"address":"Dr Tomas Manuel De  Anchorena &  Jose A. Cabrera","cross_street":"Dr Tomas Manuel De  Anchorena &  Jose A. Cabrera","post_code":"C1170","capacity":12,"rental_methods":["KEY","TRANSITCARD","PHONE"],"groups":["RECOLETA"],"nearby_distance":1000.0},{"station_id":"166","name":"166 - Cementerio de Recoleta","physical_configuration":"SMARTLITMAPFRAME","lat":-34.5891897,"lon":-58.3932507,"altitude":0.0,"address":"2000 Vicente Lopez","cross_street":"Vicente Lopez & Junin","post_code":"1111","capacity":20,"rental_methods":["KEY","TRANSITCARD","PHONE"],"groups":["RECOLETA"],"nearby_distance":1000.0},{"station_id":"167","name":"275 - PLAZA 24 DE SEPTIEMBRE","physical_configuration":"SMARTLITMAPFRAME","lat":-34.6070594,"lon":-58.4485709,"altitude":0.0,"address":"1355 San Martin Av.","post_code":"1111","capacity":16,"rental_methods":["KEY","TRANSITCARD","PHONE"],"groups":["VILLA CRESPO"],"nearby_distance":1000.0},{"station_id":"168","name":"168 - Estados Unidos","physical_configuration":"SMARTLITMAPFRAME","lat":-34.6186217,"lon":-58.3812271,"altitude":0.0,"address":"Estados Unidos & Lima","cross_street":"Estados Unidos & Lima","post_code":"11111","capacity":16,"rental_methods":["KEY","TRANSITCARD","PHONE"],"groups":["CONSTITUCION"],"nearby_distance":1000.0},{"station_id":"169","name":"169 - FACULTAD DE PSICOLOGIA","physical_configuration":"SMARTLITMAPFRAME","lat":-34.611875,"lon":-58.411887,"altitude":0.0,"address":"Yrigoyen, Hipolito & 24 De Noviembre","cross_street":"Yrigoyen, Hipolito & 24 De Noviembre","post_code":"1207","capacity":11,"rental_methods":["KEY","TRANSITCARD","PHONE"],"groups":["BALVANERA"],"nearby_distance":1000.0},{"station_id":"170","name":"170 - SAN LUIS Y ECUADOR","physical_configuration":"SMARTLITMAPFRAME","lat":-34.5996644,"lon":-58.4061023,"altitude":0.0,"address":"2862 San Luis & Ecuador","post_code":"1111","capacity":20,"rental_methods":["KEY","TRANSITCARD","PHONE"],"groups":["BALVANERA"],"nearby_distance":1000.0},{"station_id":"171","name":"171 - Pasteur","physical_configuration":"SMARTLITMAPFRAME","lat":-34.6032813,"lon":-58.3997553,"altitude":0.0,"address":"519 Pasteur","cross_street":"Pasteur & Lavalle","post_code":"11111","capacity":20,"rental_methods":["KEY","TRANSITCARD","PHONE"],"groups":["BALVANERA"],"nearby_distance":1000.0},{"station_id":"172","name":"172 - BRASIL","physical_configuration":"SMARTLITMAPFRAME","lat":-34.625426,"lon":-58.371082,"altitude":0.0,"address":"BRASIL&DEFENSA","cross_street":"BRASIL&DEFENSA","post_code":"C1143","capacity":16,"rental_methods":["KEY","TRANSITCARD","PHONE"],"groups":["SAN TELMO"],"nearby_distance":1000.0},{"station_id":"173","name":"173 - PLAZA CECILIA GRIERSON","physical_configuration":"SMARTLITMAPFRAME","lat":-34.6222964,"lon":-58.3751607,"altitude":0.0,"address":"Av. San Juan 632","cross_street":"Av. San Juan 632 & Chacabuco","post_code":"11111","capacity":16,"rental_methods":["KEY","TRANSITCARD","PHONE"],"groups":["SAN TELMO"],"nearby_distance":1000.0},{"station_id":"174","name":"174 - MINISTERIO DE EDUCACION","physical_configuration":"SMARTLITMAPFRAME","lat":-34.597225,"lon":-58.391768,"altitude":0.0,"address":"Marcelo T. de Alvear & Rodriguez Peña","cross_street":"Marcelo T. de Alvear & Rodriguez Peña","post_code":"C1021","capacity":19,"rental_methods":["KEY","TRANSITCARD","PHONE"],"groups":["RECOLETA"],"nearby_distance":1000.0},{"station_id":"175","name":"147 - Constitución","physical_configuration":"SMARTLITMAPFRAME","lat":-34.626814,"lon":-58.380679,"altitude":0.0,"address":"Avenida Juan de Garay 1050","post_code":"111","capacity":36,"rental_methods":["KEY","TRANSITCARD","PHONE"],"groups":["CONSTITUCION"],"obcn":"147","nearby_distance":1000.0},{"station_id":"176","name":"176 - PINZÓN Y MARTÍN RODRIGUEZ","physical_configuration":"SMARTLITMAPFRAME","lat":-34.6341873,"lon":-58.3611029,"altitude":0.0,"address":"Pinzon 469","post_code":"1111","capacity":20,"rental_methods":["KEY","TRANSITCARD","PHONE"],"groups":["BOCA"],"nearby_distance":1000.0},{"station_id":"177","name":"177 -PLANETARIO","physical_configuration":"SMARTLITMAPFRAME","lat":-34.568165,"lon":-58.412121,"altitude":0.0,"address":"Av Casares y Av Belisario Roldan","post_code":"11111","capacity":12,"rental_methods":["KEY","TRANSITCARD","PHONE"],"groups":["PALERMO"],"nearby_distance":1000.0},{"station_id":"179","name":"179 - CASA SAN","physical_configuration":"SMARTLITMAPFRAME","lat":-34.6385404,"lon":-58.3643961,"altitude":0.0,"address":"Olavarria 794","cross_street":"Olavarria 794","post_code":"1111","capacity":16,"rental_methods":["KEY","TRANSITCARD","PHONE"],"groups":["BOCA"],"nearby_distance":1000.0},{"station_id":"180","name":"180 - CASTRO Y MEXICO","physical_configuration":"SMARTLITMAPFRAME","lat":-34.619775,"lon":-58.420492,"altitude":0.0,"address":"680 Castro & Mexico CABA","post_code":"1217","capacity":20,"rental_methods":["KEY","TRANSITCARD","PHONE"],"groups":["ALMAGRO"],"nearby_distance":1000.0},{"station_id":"181","name":"181 - BILLINGHURST Y MANSILLA","physical_configuration":"SMARTLITMAPFRAME","lat":-34.5926649,"lon":-58.4120072,"altitude":0.0,"address":"1520 Billinghurst & Mansilla, Lucio Norberto, General","cross_street":"1520 Billinghurst & Mansilla, Lucio Norberto, General","post_code":"11111","capacity":19,"rental_methods":["KEY","TRANSITCARD","PHONE"],"groups":["RECOLETA"],"nearby_distance":1000.0},{"station_id":"182","name":"182 - RAVIGNANI Y GUATEMALA","physical_configuration":"SMARTLITMAPFRAME","lat":-34.5780479,"lon":-58.4352466,"altitude":0.0,"address":"2185 Ravignani, Emilio, Dr. & Guatemala","post_code":"1111","capacity":20,"rental_methods":["KEY","TRANSITCARD","PHONE"],"groups":["PALERMO"],"nearby_distance":1000.0},{"station_id":"183","name":"183 - VIRREY CEVALLOS","physical_configuration":"SMARTLITMAPFRAME","lat":-34.6156994,"lon":-58.3899728,"altitude":0.0,"address":"Mexico 1652","cross_street":"Mexico 1652","post_code":"11111","capacity":11,"rental_methods":["KEY","TRANSITCARD","PHONE"],"groups":["MONSERRAT"],"nearby_distance":1000.0},{"station_id":"184","name":"184 - Pedro Echague","physical_configuration":"SMARTLITMAPFRAME","lat":-34.6306129,"lon":-58.3913419,"altitude":0.0,"address":"Pedro Echague 1878 & Combate De Los Pozos","post_code":"11111","capacity":20,"rental_methods":["KEY","TRANSITCARD","PHONE"],"groups":["PARQUE PATRICIOS"],"obcn":"","nearby_distance":1000.0},{"station_id":"185","name":"185 - AV. PAVÓN Y 33 ORIENTALES","physical_configuration":"SMARTLITMAPFRAME","lat":-34.63133,"lon":-58.42177,"altitude":0.0,"address":"33 Orientales 1400","cross_street":"33 orientales 1400 y Av. Pavon","post_code":"1257","capacity":20,"rental_methods":["KEY","TRANSITCARD","PHONE"],"groups":["BOEDO"],"nearby_distance":1000.0},{"station_id":"186","name":"186 - MANZANA 66","physical_configuration":"SMARTLITMAPFRAME","lat":-34.6136356,"lon":-58.4064415,"altitude":0.0,"address":"2875 Moreno","cross_street":"2875 Moreno & Catamarca","post_code":"11111","capacity":19,"rental_methods":["KEY","TRANSITCARD","PHONE"],"groups":["BALVANERA"],"nearby_distance":1000.0},{"station_id":"187","name":"261 - QUINTEROS LIDORO","physical_configuration":"SMARTLITMAPFRAME","lat":-34.5528626,"lon":-58.450854,"altitude":0.0,"address":"1483 Quinteros, Lidoro J. Av.","post_code":"1111","capacity":16,"rental_methods":["KEY","TRANSITCARD","PHONE"],"groups":["BELGRANO"],"nearby_distance":1000.0},{"station_id":"188","name":"373 - Jorgelina De Simone","physical_configuration":"SMARTLITMAPFRAME","lat":-34.623923,"lon":-58.3904814,"altitude":0.0,"address":"Cochabamba 1755","post_code":"1111","capacity":20,"rental_methods":["KEY","TRANSITCARD","PHONE"],"groups":["CONSTITUCION"],"nearby_distance":1000.0},{"station_id":"189","name":"189 - POSADAS","physical_configuration":"SMARTLITMAPFRAME","lat":-34.5886889,"lon":-58.3852113,"altitude":0.0,"address":"1350 Posadas","cross_street":"Posadas & Montevideo","post_code":"11111","capacity":20,"rental_methods":["KEY","TRANSITCARD","PHONE"],"groups":["RETIRO"],"nearby_distance":1000.0},{"station_id":"190","name":"190 - JUNCAL","physical_configuration":"SMARTLITMAPFRAME","lat":-34.5850763,"lon":-58.4111136,"altitude":0.0,"address":"Juncal & Salguero, Jeronimo","cross_street":"Juncal & Salguero, Jeronimo","post_code":"11111","capacity":20,"rental_methods":["KEY","TRANSITCARD","PHONE"],"groups":["PALERMO"],"nearby_distance":1000.0},{"station_id":"191","name":"191 - Rivadavia y 9 de Julio","physical_configuration":"SMARTLITMAPFRAME","lat":-34.6079305,"lon":-58.3808358,"altitude":0.0,"address":"Pellegrini Y Rivadavia Av.","post_code":"11111","capacity":16,"rental_methods":["KEY","TRANSITCARD","PHONE"],"groups":["SAN NICOLAS"],"nearby_distance":1000.0},{"station_id":"192","name":"192 - Talcahuano","physical_configuration":"SMARTLITMAPFRAME","lat":-34.5972773,"lon":-58.3855748,"altitude":0.0,"address":"990 Talcahuano","cross_street":"Talcahuano & Marcelo T. Alvear","post_code":"11111","capacity":20,"rental_methods":["KEY","TRANSITCARD","PHONE"],"groups":["RETIRO"],"nearby_distance":1000.0},{"station_id":"193","name":"193 - ARENALES Y AGUERO","physical_configuration":"SMARTLITMAPFRAME","lat":-34.5908626,"lon":-58.4061652,"altitude":0.0,"address":"Arenales y Aguero","cross_street":"2882 Arenales & Aguero","post_code":"1111","capacity":19,"rental_methods":["KEY","TRANSITCARD","PHONE"],"groups":["RECOLETA"],"nearby_distance":1000.0},{"station_id":"194","name":"194 - PERÓN Y ACUÑA DE FIGUEROA","physical_configuration":"SMARTLITMAPFRAME","lat":-34.6060758,"lon":-58.4224635,"altitude":0.0,"address":"3997 TTE. GENERAL JUAN DOMINGO PERON","cross_street":"3997 TTE. GENERAL JUAN DOMINGO PERON","post_code":"1111","capacity":16,"rental_methods":["KEY","TRANSITCARD","PHONE"],"groups":["ALMAGRO"],"nearby_distance":1000.0},{"station_id":"195","name":"357 - PLAZA MARTIN FIERRO","physical_configuration":"SMARTLITMAPFRAME","lat":-34.6260785,"lon":-58.407389,"altitude":0.0,"address":"La Rioja & Cochabamba","post_code":"1111","capacity":20,"rental_methods":["KEY","TRANSITCARD","PHONE"],"groups":["SAN CRISTOBAL"],"nearby_distance":1000.0},{"station_id":"196","name":"196 - HOSPITAL ARGERICH","physical_configuration":"SMARTLITMAPFRAME","lat":-34.6275351,"lon":-58.3657211,"altitude":0.0,"address":"750 Pi Y Margall & Necochea","cross_street":"750 Pi Y Margall & Necochea","post_code":"11111","capacity":19,"rental_methods":["KEY","TRANSITCARD","PHONE"],"groups":["BOCA"],"nearby_distance":1000.0},{"station_id":"197","name":"197 - Quintino Bocayuva","physical_configuration":"SMARTLITMAPFRAME","lat":-34.613449,"lon":-58.4233969,"altitude":0.0,"address":"Quintino Bocayuva y Don Bosco","post_code":"111111","capacity":20,"rental_methods":["KEY","TRANSITCARD","PHONE"],"groups":["ALMAGRO"],"obcn":"","nearby_distance":1000.0},{"station_id":"199","name":"199 - ESTADOS UNIDOS Y BOEDO","physical_configuration":"SMARTLITMAPFRAME","lat":-34.6222601,"lon":-58.4160137,"altitude":0.0,"address":"3568 Estados Unidos & Boedo Av.","cross_street":"3568 Estados Unidos & Boedo Av.","post_code":"11111","capacity":20,"rental_methods":["KEY","TRANSITCARD","PHONE"],"groups":["BOEDO"],"obcn":"","nearby_distance":20000.0},{"station_id":"200","name":"200 - AUSTRIA Y FRENCH","physical_configuration":"SMARTLITMAPFRAME","lat":-34.5883282,"lon":-58.4038684,"altitude":0.0,"address":"2080 Austria","cross_street":"Austria & French","post_code":"1111","capacity":20,"rental_methods":["KEY","TRANSITCARD","PHONE"],"groups":["RECOLETA"],"obcn":"","nearby_distance":500.0},{"station_id":"201","name":"175 - Esmeralda y Corrientes","physical_configuration":"SMARTLITMAPFRAME","lat":-34.6034449,"lon":-58.378167,"altitude":0.0,"address":"Esmeralda y Corrientes","post_code":"11111","capacity":20,"rental_methods":["KEY","TRANSITCARD","PHONE"],"groups":["SAN NICOLAS"],"obcn":"","nearby_distance":1000.0},{"station_id":"202","name":"001 - FACULTAD DE DERECHO","physical_configuration":"SMARTLITMAPFRAME","lat":-34.583811,"lon":-58.390967,"altitude":0.0,"address":"Av. Pres. Figueroa Alcorta 2120","post_code":"11111","capacity":30,"rental_methods":["KEY","TRANSITCARD","PHONE"],"groups":["RECOLETA"],"obcn":"","nearby_distance":1000.0},{"station_id":"203","name":"108 - Usina del Arte","physical_configuration":"SMARTLITMAPFRAME","lat":-34.628511,"lon":-58.356004,"altitude":0.0,"address":"Caffarena, Agustin R. & Don Pedro De Mendoza Av.","post_code":"11111","capacity":24,"rental_methods":["KEY","TRANSITCARD","PHONE"],"groups":["BOCA"],"obcn":"","nearby_distance":1000.0},{"station_id":"204","name":"167 - Hipólito Yrigoyen","physical_configuration":"SMARTLITMAPFRAME","lat":-34.6148209,"lon":-58.4278453,"altitude":0.0,"address":"4300 Yrigoyen, Hipolito Av.","post_code":"11111","capacity":24,"rental_methods":["KEY","TRANSITCARD","PHONE"],"groups":["ALMAGRO"],"obcn":"","nearby_distance":10000.0},{"station_id":"205","name":"125 - F.J.Santamaria de Oro","physical_configuration":"SMARTLITMAPFRAME","lat":-34.5832733,"lon":-58.4279562,"altitude":0.0,"address":"F.J.Santamaria de Oro & Guatemala","post_code":"11111","capacity":16,"rental_methods":["KEY","TRANSITCARD","PHONE"],"groups":["PALERMO"],"obcn":"","nearby_distance":1000.0},{"station_id":"206","name":"159 - Fitz Roy & Gorriti","physical_configuration":"SMARTLITMAPFRAME","lat":-34.5849119,"lon":-58.4372524,"altitude":0.0,"address":"Fitz Roy & Gorriti","post_code":"11111","capacity":16,"rental_methods":["KEY","TRANSITCARD","PHONE"],"groups":["PALERMO"],"obcn":"","nearby_distance":1000.0},{"station_id":"207","name":"123 - Armenia","physical_configuration":"SMARTLITMAPFRAME","lat":-34.5852485,"lon":-58.420906,"altitude":0.0,"address":"Armenia 2315 & Charcas","post_code":"11111","capacity":20,"rental_methods":["KEY","TRANSITCARD","PHONE"],"groups":["PALERMO"],"obcn":"","nearby_distance":1000.0},{"station_id":"208","name":"145 - RAVIGNANI","physical_configuration":"SMARTLITMAPFRAME","lat":-34.5804702,"lon":-58.4379925,"altitude":0.0,"address":"Ravignani, Emilio, Dr. & Costa Rica","post_code":"11111","capacity":20,"rental_methods":["KEY","TRANSITCARD","PHONE"],"groups":["PALERMO"],"obcn":"","nearby_distance":1000.0},{"station_id":"210","name":"335 - General Urquiza","physical_configuration":"SMARTLITMAPFRAME","lat":-34.572132,"lon":-58.4113228,"altitude":0.0,"address":"Figueroa Alcorta & Sarmiento","post_code":"11111","capacity":20,"rental_methods":["KEY","TRANSITCARD","PHONE"],"groups":["PALERMO"],"obcn":"","nearby_distance":1000.0},{"station_id":"212","name":"129 - Velasco","physical_configuration":"SMARTLITMAPFRAME","lat":-34.600164,"lon":-58.434983,"altitude":0.0,"address":"J.Ramirez de Velasco 285","post_code":"C1414","capacity":20,"rental_methods":["KEY","TRANSITCARD","PHONE"],"groups":["VILLA CRESPO"],"obcn":"","nearby_distance":1000.0},{"station_id":"213","name":"136 - Acevedo","physical_configuration":"SMARTLITMAPFRAME","lat":-34.5995649,"lon":-58.4425362,"altitude":0.0,"address":"Acevedo 220 y padilla","post_code":"11111","capacity":20,"rental_methods":["KEY","TRANSITCARD","PHONE"],"groups":["VILLA CRESPO"],"obcn":"","nearby_distance":1000.0},{"station_id":"214","name":"142 - Armenia y Gorriti","physical_configuration":"SMARTLITMAPFRAME","lat":-34.5905808,"lon":-58.4289624,"altitude":0.0,"address":"Armenia 1525 y Gorriti","post_code":"11111","capacity":16,"rental_methods":["KEY","TRANSITCARD","PHONE"],"groups":["PALERMO"],"obcn":"","nearby_distance":1000.0},{"station_id":"215","name":"113 - Guatemala","physical_configuration":"SMARTLITMAPFRAME","lat":-34.5858843,"lon":-58.4251226,"altitude":0.0,"address":"Guatemala 4773","post_code":"11111","capacity":20,"rental_methods":["KEY","TRANSITCARD","PHONE"],"groups":["PALERMO"],"obcn":"","nearby_distance":1000.0},{"station_id":"216","name":"059 - Coronel Diaz","physical_configuration":"SMARTLITMAPFRAME","lat":-34.5900976,"lon":-58.4114907,"altitude":0.0,"address":"Guemes 3330 & Coronel Diaz","post_code":"11111","capacity":20,"rental_methods":["KEY","TRANSITCARD","PHONE"],"groups":["PALERMO"],"obcn":"","nearby_distance":1000.0},{"station_id":"217","name":"198 - HOSPITAL SARDÁ","physical_configuration":"SMARTLITMAPFRAME","lat":-34.6342818,"lon":-58.4042123,"altitude":0.0,"address":"Castillo, Catulo & Dean Funes","post_code":"11111","capacity":16,"rental_methods":["KEY","TRANSITCARD","PHONE"],"groups":["PARQUE PATRICIOS"],"obcn":"","nearby_distance":1000.0},{"station_id":"218","name":"067 - Senillosa","physical_configuration":"SMARTLITMAPFRAME","lat":-34.638523,"lon":-58.425464,"altitude":0.0,"address":"Senillosa 1905 & Zañartu","post_code":"C1424","capacity":16,"rental_methods":["KEY","TRANSITCARD","PHONE"],"groups":["PARQUE CHACABUCO"],"obcn":"","nearby_distance":1000.0},{"station_id":"219","name":"140 - Las Casas","physical_configuration":"SMARTLITMAPFRAME","lat":-34.6351732,"lon":-58.4157035,"altitude":0.0,"address":"Las Casas 3587","post_code":"11111","capacity":16,"rental_methods":["KEY","TRANSITCARD","PHONE"],"groups":["BOEDO"],"obcn":"","nearby_distance":1000.0},{"station_id":"220","name":"097 - Avelino Diaz","physical_configuration":"SMARTLITMAPFRAME","lat":-34.6354717,"lon":-58.4279173,"altitude":0.0,"address":"Avelino Diaz&Doblas","post_code":"11111","capacity":16,"rental_methods":["KEY","TRANSITCARD","PHONE"],"groups":["PARQUE CHACABUCO"],"obcn":"","nearby_distance":1000.0},{"station_id":"221","name":"157 - Senillosa y Zuviria","physical_configuration":"SMARTLITMAPFRAME","lat":-34.6280441,"lon":-58.4274042,"altitude":0.0,"address":"Senillosa 989 y Zuviria","post_code":"11111","capacity":20,"rental_methods":["KEY","TRANSITCARD","PHONE"],"groups":["PARQUE CHACABUCO"],"obcn":"","nearby_distance":1000.0},{"station_id":"222","name":"160 - Godoy Cruz y Libertador","physical_configuration":"SMARTLITMAPFRAME","lat":-34.5727715,"lon":-58.4206642,"altitude":0.0,"address":"Godoy Cruz  3279 y Libertador","post_code":"11111","capacity":20,"rental_methods":["KEY","TRANSITCARD","PHONE"],"groups":["PALERMO"],"obcn":"","nearby_distance":1000.0},{"station_id":"223","name":"178 - José Marmol","physical_configuration":"SMARTLITMAPFRAME","lat":-34.623456,"lon":-58.424895,"altitude":0.0,"address":"803 José Marmol","cross_street":"803 Jose Marmol & Estados Unidos","post_code":"11111","capacity":16,"rental_methods":["KEY","TRANSITCARD","PHONE"],"groups":["BOEDO"],"obcn":"","nearby_distance":1000.0},{"station_id":"224","name":"133 - Nicaragua","physical_configuration":"SMARTLITMAPFRAME","lat":-34.5808537,"lon":-58.434484,"altitude":0.0,"address":"Nicaragua & Bonpland","post_code":"11111","capacity":20,"rental_methods":["KEY","TRANSITCARD","PHONE"],"groups":["PALERMO"],"obcn":"","nearby_distance":1000.0},{"station_id":"225","name":"109 - Lerma","physical_configuration":"SMARTLITMAPFRAME","lat":-34.5968511,"lon":-58.4295184,"altitude":0.0,"address":"175 Lerma & Bonpland","post_code":"11111","capacity":20,"rental_methods":["KEY","TRANSITCARD","PHONE"],"groups":["VILLA CRESPO"],"obcn":"","nearby_distance":1000.0},{"station_id":"226","name":"139 - Virrey Liniers","physical_configuration":"SMARTLITMAPFRAME","lat":-34.633335,"lon":-58.4132263,"altitude":0.0,"address":"Salcedo 3408 & Virrey Liniers","post_code":"11111","capacity":20,"rental_methods":["KEY","TRANSITCARD","PHONE"],"groups":["BOEDO"],"obcn":"","nearby_distance":1000.0},{"station_id":"227","name":"188 - Aranguren","physical_configuration":"SMARTLITMAPFRAME","lat":-34.6105021,"lon":-58.4327935,"altitude":0.0,"address":"137 Aranguren, Juan F., Dr. & Portugal","post_code":"11111","capacity":20,"rental_methods":["KEY","TRANSITCARD","PHONE"],"groups":["CABALLITO"],"obcn":"","nearby_distance":1000.0},{"station_id":"229","name":"243 - PLAZOLETA CELEDONIO FLORES","physical_configuration":"SMARTLITMAPFRAME","lat":-34.5813811,"lon":-58.4514575,"altitude":0.0,"address":"Cordoba 6599","cross_street":"Cordoba 6599","post_code":"11111","capacity":12,"rental_methods":["KEY","TRANSITCARD","PHONE"],"groups":["CHACARITA"],"obcn":"243","nearby_distance":6.0},{"station_id":"230","name":"259 - PLAZA CASTELLI","physical_configuration":"SMARTLITMAPFRAME","lat":-34.5678255,"lon":-58.4645037,"altitude":0.0,"address":"Echeverria 3249","cross_street":"Echeverria 3249","post_code":"11111","capacity":16,"rental_methods":["KEY","TRANSITCARD","PHONE"],"groups":["BELGRANO"],"obcn":"","nearby_distance":1000.0},{"station_id":"231","name":"384 - PLAZA BENITO NAZAR","physical_configuration":"SMARTLITMAPFRAME","lat":-34.6051305,"lon":-58.4458398,"altitude":0.0,"address":"Virasoro, Valentin & Figueroa, D Apolinario, Coronel","post_code":"11111","capacity":16,"rental_methods":["KEY","TRANSITCARD","PHONE"],"groups":["VILLA CRESPO"],"obcn":"","nearby_distance":1000.0},{"station_id":"232","name":"252 - Tamborini","physical_configuration":"SMARTLITMAPFRAME","lat":-34.5599395,"lon":-58.4788904,"altitude":0.0,"address":"Tamborini 3821","post_code":"11111","capacity":20,"rental_methods":["KEY","TRANSITCARD","PHONE"],"groups":["COGHLAN"],"obcn":"","nearby_distance":1000.0},{"station_id":"233","name":"389 - Plaza República De Mexico","physical_configuration":"SMARTLITMAPFRAME","lat":-34.5539765,"lon":-58.4360367,"altitude":0.0,"address":"693 La Pampa","post_code":"1111","capacity":24,"rental_methods":["KEY","TRANSITCARD","PHONE"],"groups":["BELGRANO"],"obcn":"","nearby_distance":1000.0},{"station_id":"234","name":"344 - UNIVERSIDAD DI TELLA","physical_configuration":"SMARTLITMAPFRAME","lat":-34.5483593,"lon":-58.4475673,"altitude":0.0,"address":"1001 Saenz valiente, Juan Pablo","post_code":"1111","capacity":20,"rental_methods":["KEY","TRANSITCARD","PHONE"],"groups":["BELGRANO"],"obcn":"","nearby_distance":1000.0},{"station_id":"235","name":"281 - Villa Urquiza","physical_configuration":"SMARTLITMAPFRAME","lat":-34.5737764,"lon":-58.4868051,"altitude":0.0,"address":"Triunvirato Av. & Roosevelt Franklin D. Av.","post_code":"1111","capacity":23,"rental_methods":["KEY","TRANSITCARD","PHONE"],"groups":["VILLA URQUIZA"],"obcn":"","nearby_distance":1000.0},{"station_id":"236","name":"254 - Plaza Rafael Hernandez","physical_configuration":"SMARTLITMAPFRAME","lat":-34.5623422,"lon":-58.4550484,"altitude":0.0,"address":"Vuelta de Obligado 2004","post_code":"11111","capacity":16,"rental_methods":["KEY","TRANSITCARD","PHONE"],"groups":["BELGRANO"],"obcn":"","nearby_distance":1000.0},{"station_id":"238","name":"217 - Cachimayo","physical_configuration":"SMARTLITMAPFRAME","lat":-34.6365814,"lon":-58.4367011,"altitude":0.0,"address":"1489 Cachimayo","post_code":"1111","capacity":24,"rental_methods":["KEY","TRANSITCARD","PHONE"],"groups":["PARQUE CHACABUCO"],"obcn":"","nearby_distance":1000.0},{"station_id":"239","name":"391 - Plaza República de Ecuador","physical_configuration":"SMARTLITMAPFRAME","lat":-34.5650089,"lon":-58.4201625,"altitude":0.0,"address":"Figueroa Alcorta, Pres. Av. & Dorrego Av.","post_code":"11111","capacity":20,"rental_methods":["KEY","TRANSITCARD","PHONE"],"groups":["PALERMO"],"obcn":"","nearby_distance":1000.0},{"station_id":"240","name":"239 - Vidal","physical_configuration":"SMARTLITMAPFRAME","lat":-34.558137,"lon":-58.465559,"altitude":0.0,"address":"Vidal 2799","post_code":"11111","capacity":24,"rental_methods":["KEY","TRANSITCARD","PHONE"],"groups":["BELGRANO"],"obcn":"239","nearby_distance":1000.0},{"station_id":"241","name":"348 - Villa del Parque","physical_configuration":"SMARTLITMAPFRAME","lat":-34.600874,"lon":-58.494123,"altitude":0.0,"address":"Gutierrez, Ricardo 3105","post_code":"11111","capacity":12,"rental_methods":["KEY","TRANSITCARD","PHONE"],"groups":["VILLA DEL PARQUE"],"obcn":"","nearby_distance":1000.0},{"station_id":"242","name":"103 - MALBA","physical_configuration":"SMARTLITMAPFRAME","lat":-34.5771741,"lon":-58.4032162,"altitude":0.0,"address":"3051 San Martin De Tours","post_code":"11111","capacity":20,"rental_methods":["KEY","TRANSITCARD","PHONE"],"groups":["PALERMO"],"obcn":"","nearby_distance":1000.0},{"station_id":"244","name":"266 - Plaza Alfredo Nobel","physical_configuration":"SMARTLITMAPFRAME","lat":-34.5874735,"lon":-58.4842469,"altitude":0.0,"address":"Hamburgo 3310","post_code":"11111","capacity":19,"rental_methods":["KEY","TRANSITCARD","PHONE"],"groups":["PARQUE CHAS"],"obcn":"","nearby_distance":1000.0},{"station_id":"245","name":"248 - Husares","physical_configuration":"SMARTLITMAPFRAME","lat":-34.5522044,"lon":-58.4431506,"altitude":0.0,"address":"Husares 2201","post_code":"11111","capacity":16,"rental_methods":["KEY","TRANSITCARD","PHONE"],"groups":["BELGRANO"],"obcn":"","nearby_distance":1000.0},{"station_id":"246","name":"338 - Sucre y Dragones","physical_configuration":"SMARTLITMAPFRAME","lat":-34.554326,"lon":-58.4389256,"altitude":0.0,"address":"Sucre 877 y Dragones","post_code":"11111","capacity":16,"rental_methods":["KEY","TRANSITCARD","PHONE"],"groups":["BELGRANO"],"obcn":"","nearby_distance":1000.0},{"station_id":"247","name":"282 - Tronador","physical_configuration":"SMARTLITMAPFRAME","lat":-34.5839895,"lon":-58.4666304,"altitude":0.0,"address":"Triunvirato Av. & Tronador","post_code":"11111","capacity":18,"rental_methods":["KEY","TRANSITCARD","PHONE"],"groups":["VILLA ORTUZAR"],"obcn":"","nearby_distance":1000.0},{"station_id":"248","name":"346 - Plaza Zapiola","physical_configuration":"SMARTLITMAPFRAME","lat":-34.5738411,"lon":-58.4742812,"altitude":0.0,"address":"2001 Donado","post_code":"11111","capacity":20,"rental_methods":["KEY","TRANSITCARD","PHONE"],"groups":["VILLA URQUIZA"],"obcn":"","nearby_distance":1000.0},{"station_id":"249","name":"307 - LEONARDO PEREYRA","physical_configuration":"SMARTLITMAPFRAME","lat":-34.649796,"lon":-58.388433,"altitude":0.0,"address":"Velez Sarsfield y California","post_code":"1111","capacity":15,"rental_methods":["KEY","TRANSITCARD","PHONE"],"groups":["BARRACAS"],"obcn":"","nearby_distance":1000.0},{"station_id":"252","name":"331 - CALIFORNIA","physical_configuration":"SMARTLITMAPFRAME","lat":-34.6471907,"lon":-58.3743002,"altitude":0.0,"address":"California y General Hornos","cross_street":"California y General Hornos","post_code":"1111","capacity":16,"rental_methods":["KEY","TRANSITCARD","PHONE"],"groups":["BARRACAS"],"obcn":"","nearby_distance":1000.0},{"station_id":"253","name":"383 - Boedo & Venezuela","physical_configuration":"SMARTLITMAPFRAME","lat":-34.6172808,"lon":-58.4167728,"altitude":0.0,"address":"Boedo Av. & Republica Bolivariana De Venezuela","post_code":"1111","capacity":19,"rental_methods":["KEY","TRANSITCARD","PHONE"],"groups":["ALMAGRO"],"obcn":"","nearby_distance":1000.0},{"station_id":"254","name":"276 - PRIMERA JUNTA","physical_configuration":"SMARTLITMAPFRAME","lat":-34.6206836,"lon":-58.4415718,"altitude":0.0,"address":"Av. Rivadavia & Del Barco Centenera","post_code":"1111","capacity":16,"rental_methods":["KEY","TRANSITCARD","PHONE"],"groups":["CABALLITO"],"obcn":"","nearby_distance":1000.0},{"station_id":"255","name":"374 - Puan","physical_configuration":"SMARTLITMAPFRAME","lat":-34.6221889,"lon":-58.44855,"altitude":0.0,"address":"Yerbal 1290","post_code":"1111","capacity":16,"rental_methods":["KEY","TRANSITCARD","PHONE"],"groups":["CABALLITO"],"obcn":"","nearby_distance":1000.0},{"station_id":"256","name":"209 - PAYSANDU","physical_configuration":"SMARTLITMAPFRAME","lat":-34.610398,"lon":-58.454304,"altitude":0.0,"address":"1182 Paysandu","post_code":"1111","capacity":20,"rental_methods":["KEY","TRANSITCARD","PHONE"],"groups":["CABALLITO"],"obcn":"","nearby_distance":1000.0},{"station_id":"257","name":"264 - Plaza Marcos Sastre","physical_configuration":"SMARTLITMAPFRAME","lat":-34.570829,"lon":-58.481233,"altitude":0.0,"address":"Miller & Monroe","post_code":"11111","capacity":24,"rental_methods":["KEY","TRANSITCARD","PHONE"],"groups":["VILLA URQUIZA"],"obcn":"","nearby_distance":1000.0},{"station_id":"258","name":"336 - La Pampa","physical_configuration":"SMARTLITMAPFRAME","lat":-34.5655918,"lon":-58.4554838,"altitude":0.0,"address":"La Pampa 2512 & Ciudad de la Paz","post_code":"11111","capacity":16,"rental_methods":["KEY","TRANSITCARD","PHONE"],"groups":["BELGRANO"],"obcn":"","nearby_distance":1000.0},{"station_id":"259","name":"290 - Club Excursionistas","physical_configuration":"SMARTLITMAPFRAME","lat":-34.5580469,"lon":-58.4434052,"altitude":0.0,"address":"Miñones 1818","post_code":"11111","capacity":16,"rental_methods":["KEY","TRANSITCARD","PHONE"],"groups":["BELGRANO"],"obcn":"","nearby_distance":1000.0},{"station_id":"260","name":"371 - Paseo de las Americas","physical_configuration":"SMARTLITMAPFRAME","lat":-34.550961,"lon":-58.4381142,"altitude":0.0,"address":"Juramento 646","post_code":"11111","capacity":18,"rental_methods":["KEY","TRANSITCARD","PHONE"],"groups":["BELGRANO"],"obcn":"","nearby_distance":1000.0},{"station_id":"261","name":"272 - Plaza Bruno Giordano","physical_configuration":"SMARTLITMAPFRAME","lat":-34.616207,"lon":-58.4406995,"altitude":0.0,"address":"Bruno Giordano&Neuquen","post_code":"11111","capacity":15,"rental_methods":["KEY","TRANSITCARD","PHONE"],"groups":["CABALLITO"],"obcn":"","nearby_distance":1000.0},{"station_id":"262","name":"349 - Plaza Saenz Peña","physical_configuration":"SMARTLITMAPFRAME","lat":-34.60962,"lon":-58.4673963,"altitude":0.0,"address":"Andres Lamas&Remedios Escalada de San Martin","post_code":"11111","capacity":16,"rental_methods":["KEY","TRANSITCARD","PHONE"],"groups":["VILLA GENERAL MITRE"],"obcn":"","nearby_distance":1000.0},{"station_id":"263","name":"270 - PLAZA DEL ANGEL GRIS","physical_configuration":"SMARTLITMAPFRAME","lat":-34.6217948,"lon":-58.4575279,"altitude":0.0,"address":"Calcena & Avellaneda Av.","post_code":"1111","capacity":12,"rental_methods":["KEY","TRANSITCARD","PHONE"],"groups":["FLORES"],"obcn":"","nearby_distance":1000.0},{"station_id":"264","name":"283 - CNEL. JUAN CRUZ CZETZ","physical_configuration":"SMARTLITMAPFRAME","lat":-34.5559308,"lon":-58.4812325,"altitude":0.0,"address":"Balbin, Ricardo, Dr. Av. & Larralde, Crisologo Av.","post_code":"1111","capacity":16,"rental_methods":["KEY","TRANSITCARD","PHONE"],"groups":["SAAVEDRA"],"obcn":"","nearby_distance":1000.0},{"station_id":"266","name":"379 - CORPORACIÓN BS AS SUR","physical_configuration":"SMARTLITMAPFRAME","lat":-34.6654739,"lon":-58.4384883,"altitude":0.0,"address":"RABANAL 3220","cross_street":"RABANAL 3220","post_code":"1111","capacity":16,"rental_methods":["KEY","TRANSITCARD","PHONE"],"groups":["VILLA SOLDATI"],"obcn":"","nearby_distance":1000.0},{"station_id":"267","name":"353 - PLAZA VELEZ SARSFIELD","physical_configuration":"SMARTLITMAPFRAME","lat":-34.6296512,"lon":-58.4835484,"altitude":0.0,"address":"Chivilcoy & Avellaneda Av.","post_code":"1111","capacity":12,"rental_methods":["KEY","TRANSITCARD","PHONE"],"groups":["FLORESTA"],"obcn":"","nearby_distance":1000.0},{"station_id":"268","name":"399 - GARCIA DEL RIO","physical_configuration":"SMARTLITMAPFRAME","lat":-34.550293,"lon":-58.4764172,"altitude":0.0,"address":"GARCIA DEL RIO & PINTO","post_code":"1111","capacity":28,"rental_methods":["KEY","TRANSITCARD","PHONE"],"groups":["SAAVEDRA"],"obcn":"","nearby_distance":1000.0},{"station_id":"269","name":"260 - SAN MIGUEL DE GARICOITS","physical_configuration":"SMARTLITMAPFRAME","lat":-34.577296,"lon":-58.457854,"altitude":0.0,"address":"Delgado & Loreto, Virrey","post_code":"1111","capacity":18,"rental_methods":["KEY","TRANSITCARD","PHONE"],"groups":["COLEGIALES"],"obcn":"","nearby_distance":1000.0},{"station_id":"270","name":"370 - Beauchef","physical_configuration":"SMARTLITMAPFRAME","lat":-34.640114,"lon":-58.43026,"altitude":0.0,"address":"1995 Beauchef","post_code":"1111","capacity":16,"rental_methods":["KEY","TRANSITCARD","PHONE"],"groups":["PARQUE CHACABUCO"],"obcn":"","nearby_distance":1000.0},{"station_id":"271","name":"365 - Venancio Flores","physical_configuration":"SMARTLITMAPFRAME","lat":-34.63008,"lon":-58.47426,"altitude":0.0,"address":"Argerich & Flores, Venancio, Gral.","post_code":"11111","capacity":20,"rental_methods":["KEY","TRANSITCARD","PHONE"],"groups":["FLORES"],"obcn":"","nearby_distance":1000.0},{"station_id":"272","name":"347 - PLAZA MALAVER","physical_configuration":"SMARTLITMAPFRAME","lat":-34.5883744,"lon":-58.4668651,"altitude":0.0,"address":"328 Heredia CABA","post_code":"1111","capacity":20,"rental_methods":["KEY","TRANSITCARD","PHONE"],"groups":["VILLA ORTUZAR"],"obcn":"","nearby_distance":1000.0},{"station_id":"273","name":"223 - GAINZA","physical_configuration":"SMARTLITMAPFRAME","lat":-34.61668,"lon":-58.4466674,"altitude":0.0,"address":"494 Gainza, Martin De, Gral.","post_code":"1111","capacity":16,"rental_methods":["KEY","TRANSITCARD","PHONE"],"groups":["CABALLITO"],"obcn":"","nearby_distance":1000.0},{"station_id":"274","name":"369 - Ciudad De La Paz","physical_configuration":"SMARTLITMAPFRAME","lat":-34.5563511,"lon":-58.4630428,"altitude":0.0,"address":"2816 Ciudad de la Paz CABA","post_code":"1111","capacity":24,"rental_methods":["KEY","TRANSITCARD","PHONE"],"groups":["BELGRANO"],"obcn":"","nearby_distance":1000.0},{"station_id":"275","name":"256 - PLAZA NORUEGA","physical_configuration":"SMARTLITMAPFRAME","lat":-34.5622136,"lon":-58.4588816,"altitude":0.0,"address":"Amenabar y Mendoza","post_code":"1111","capacity":20,"rental_methods":["KEY","TRANSITCARD","PHONE"],"groups":["BELGRANO"],"obcn":"","nearby_distance":1000.0},{"station_id":"276","name":"296 - FREIRE","physical_configuration":"SMARTLITMAPFRAME","lat":-34.559476,"lon":-58.4699652,"altitude":0.0,"address":"2899 Freire, Ramon, Cap. Gral.","post_code":"1111","capacity":16,"rental_methods":["KEY","TRANSITCARD","PHONE"],"groups":["COGHLAN"],"obcn":"","nearby_distance":1000.0},{"station_id":"277","name":"292 - PLAZA BOLIVIA","physical_configuration":"SMARTLITMAPFRAME","lat":-34.5634645,"lon":-58.4360367,"altitude":0.0,"address":"Olleros Av. & Del Libertador Av.","post_code":"1111","capacity":12,"rental_methods":["KEY","TRANSITCARD","PHONE"],"groups":["PALERMO"],"obcn":"","nearby_distance":1000.0},{"station_id":"278","name":"233 - MONROE","physical_configuration":"SMARTLITMAPFRAME","lat":-34.564083,"lon":-58.469789,"altitude":0.0,"address":"2519 Superi","post_code":"1111","capacity":16,"rental_methods":["KEY","TRANSITCARD","PHONE"],"groups":["COGHLAN"],"obcn":"","nearby_distance":1000.0},{"station_id":"279","name":"325 - CASTELLI Y PERON","physical_configuration":"SMARTLITMAPFRAME","lat":-34.607516,"lon":-58.404758,"altitude":0.0,"address":"Castelli & Peron, Juan Domingo, Tte. General","post_code":"1111","capacity":20,"rental_methods":["KEY","TRANSITCARD","PHONE"],"groups":["BALVANERA"],"obcn":"","nearby_distance":1000.0},{"station_id":"280","name":"222 - SIMON BOLIVAR","physical_configuration":"SMARTLITMAPFRAME","lat":-34.6333113,"lon":-58.4494755,"altitude":0.0,"address":"1701 Fernandez Moreno, Baldomero","post_code":"1111","capacity":24,"rental_methods":["KEY","TRANSITCARD","PHONE"],"groups":["PARQUE CHACABUCO"],"obcn":"","nearby_distance":1000.0},{"station_id":"281","name":"350 - Plaza Irlanda","physical_configuration":"SMARTLITMAPFRAME","lat":-34.6138773,"lon":-58.4583742,"altitude":0.0,"address":"Av. Gaona 2200","post_code":"1111","capacity":24,"rental_methods":["KEY","TRANSITCARD","PHONE"],"groups":["CABALLITO"],"obcn":"","nearby_distance":1000.0},{"station_id":"282","name":"332 - PLAZOLETA PORTUGAL","physical_configuration":"SMARTLITMAPFRAME","lat":-34.5699743,"lon":-58.4562794,"altitude":0.0,"address":"Aviles, Virrey & Cramer","post_code":"1111","capacity":20,"rental_methods":["KEY","TRANSITCARD","PHONE"],"groups":["COLEGIALES"],"obcn":"","nearby_distance":1000.0},{"station_id":"283","name":"228 - BALDOMERO","physical_configuration":"SMARTLITMAPFRAME","lat":-34.6355054,"lon":-58.456035,"altitude":0.0,"address":"2289 Fernandez Moreno, Baldomero","post_code":"1111","capacity":20,"rental_methods":["KEY","TRANSITCARD","PHONE"],"groups":["FLORES"],"obcn":"","nearby_distance":1000.0},{"station_id":"284","name":"229 - RIGLOS","physical_configuration":"SMARTLITMAPFRAME","lat":-34.6311092,"lon":-58.4350943,"altitude":0.0,"address":"1019 Riglos","post_code":"1111","capacity":18,"rental_methods":["KEY","TRANSITCARD","PHONE"],"groups":["PARQUE CHACABUCO"],"obcn":"","nearby_distance":1000.0},{"station_id":"285","name":"400 - Reserva Ecologica","physical_configuration":"SMARTLITMAPFRAME","lat":-34.6172122,"lon":-58.3561752,"altitude":0.0,"address":"Achaval Rodriguez, T., Dr. Av. 1520","post_code":"1111","capacity":19,"rental_methods":["KEY","TRANSITCARD","PHONE"],"groups":["PUERTO MADERO"],"obcn":"","nearby_distance":1000.0},{"station_id":"286","name":"284 - BONIFACIO Y CARABOBO","physical_configuration":"SMARTLITMAPFRAME","lat":-34.6304712,"lon":-58.4551112,"altitude":0.0,"address":"1913 Bonifacio, Jose","post_code":"1111","capacity":16,"rental_methods":["KEY","TRANSITCARD","PHONE"],"groups":["FLORES"],"obcn":"","nearby_distance":1000.0},{"station_id":"287","name":"299 - HIDALGO","physical_configuration":"SMARTLITMAPFRAME","lat":-34.6103343,"lon":-58.4409183,"altitude":0.0,"address":"Hidalgo 796","post_code":"1111","capacity":20,"rental_methods":["KEY","TRANSITCARD","PHONE"],"groups":["CABALLITO"],"obcn":"","nearby_distance":1000.0},{"station_id":"289","name":"255 - BARRANCAS DE BELGRANO","physical_configuration":"SMARTLITMAPFRAME","lat":-34.5597934,"lon":-58.4484316,"altitude":0.0,"address":"Sucre, Antonio Jose De, Mcal. Y Vertiz Virrey Av.","post_code":"1111","capacity":24,"rental_methods":["KEY","TRANSITCARD","PHONE"],"groups":["BELGRANO"],"obcn":"","nearby_distance":1000.0},{"station_id":"290","name":"224 - FERROCARRIL OESTE","physical_configuration":"SMARTLITMAPFRAME","lat":-34.6186003,"lon":-58.4456027,"altitude":0.0,"address":"280 Garcia Lorca, Federico","post_code":"1111","capacity":20,"rental_methods":["KEY","TRANSITCARD","PHONE"],"groups":["CABALLITO"],"obcn":"","nearby_distance":1000.0},{"station_id":"291","name":"244 - UADE","physical_configuration":"SMARTLITMAPFRAME","lat":-34.616985,"lon":-58.381621,"altitude":0.0,"address":"Lima 750","post_code":"1111","capacity":16,"rental_methods":["KEY","TRANSITCARD","PHONE"],"groups":["MONSERRAT"],"obcn":"","nearby_distance":1000.0},{"station_id":"292","name":"355 - PLAZA RICARDO LLERAS","physical_configuration":"SMARTLITMAPFRAME","lat":-34.634796,"lon":-58.378109,"altitude":0.0,"address":"Samperio, Manuel J. & Herrera","post_code":"1111","capacity":20,"rental_methods":["KEY","TRANSITCARD","PHONE"],"groups":["BARRACAS"],"obcn":"","nearby_distance":1000.0},{"station_id":"293","name":"294 - Bonifacio","physical_configuration":"SMARTLITMAPFRAME","lat":-34.6264943,"lon":-58.4324405,"altitude":0.0,"address":"BONIFACIO 381","post_code":"11111","capacity":16,"rental_methods":["KEY","TRANSITCARD","PHONE"],"groups":["CABALLITO"],"obcn":"","nearby_distance":13.0},{"station_id":"294","name":"363 - Udaondo","physical_configuration":"SMARTLITMAPFRAME","lat":-34.5458835,"lon":-58.4520062,"altitude":0.0,"address":"1185 AV. Udaondo","post_code":"11111","capacity":20,"rental_methods":["KEY","TRANSITCARD","PHONE"],"groups":["Nuñez"],"obcn":"","nearby_distance":1000.0},{"station_id":"295","name":"392 - Calasanz","physical_configuration":"SMARTLITMAPFRAME","lat":-34.624802,"lon":-58.437683,"altitude":0.0,"address":"San Jose De Calasanz & Valle","cross_street":"SAN JOSE DE CALASANZ&VALLE","post_code":"1111","capacity":20,"rental_methods":["KEY","TRANSITCARD","PHONE"],"groups":["CABALLITO"],"obcn":"","nearby_distance":15.0},{"station_id":"296","name":"293 - PEDERNERA","physical_configuration":"SMARTLITMAPFRAME","lat":-34.632961,"lon":-58.462547,"altitude":0.0,"address":"Pedernera 381","post_code":"11111","capacity":16,"rental_methods":["KEY","TRANSITCARD","PHONE"],"groups":["FLORES"],"obcn":"","nearby_distance":1000.0},{"station_id":"297","name":"320 - QUIRNO","physical_configuration":"SMARTLITMAPFRAME","lat":-34.640978,"lon":-58.466118,"altitude":0.0,"address":"Quirno 781","post_code":"11111","capacity":16,"rental_methods":["KEY","TRANSITCARD","PHONE"],"groups":["FLORES"],"obcn":"","nearby_distance":1000.0},{"station_id":"298","name":"271 - Plazoleta 11 de Noviembre","physical_configuration":"SMARTLITMAPFRAME","lat":-34.634443,"lon":-58.463437,"altitude":0.0,"address":"Varela 401","post_code":"11111","capacity":16,"rental_methods":["KEY","TRANSITCARD","PHONE"],"groups":["FLORES"],"obcn":"","nearby_distance":1000.0},{"station_id":"299","name":"221 - CULPINA","physical_configuration":"SMARTLITMAPFRAME","lat":-34.631486,"lon":-58.466293,"altitude":0.0,"address":"Culpina 121","post_code":"11111","capacity":20,"rental_methods":["KEY","TRANSITCARD","PHONE"],"groups":["FLORES"],"obcn":"","nearby_distance":1000.0},{"station_id":"300","name":"321 - PERITO MORENO","physical_configuration":"SMARTLITMAPFRAME","lat":-34.650635,"lon":-58.4341097,"altitude":0.0,"address":"Av. Perito Moreno 1800","post_code":"1111","capacity":20,"rental_methods":["KEY","TRANSITCARD","PHONE"],"groups":["NUEVA POMPEYA"],"obcn":"","nearby_distance":1000.0},{"station_id":"301","name":"309 - UTN II","physical_configuration":"SMARTLITMAPFRAME","lat":-34.6605038,"lon":-58.4674185,"altitude":0.0,"address":"MOZART 2391","post_code":"1111","capacity":20,"rental_methods":["KEY","TRANSITCARD","PHONE"],"groups":["VILLA SOLDATI"],"obcn":"","nearby_distance":1000.0},{"station_id":"302","name":"340 - PLAZA NUEVA POMPEYA","physical_configuration":"SMARTLITMAPFRAME","lat":-34.6518464,"lon":-58.4156955,"altitude":0.0,"address":"3817 Traful","post_code":"1111","capacity":16,"rental_methods":["KEY","TRANSITCARD","PHONE"],"groups":["NUEVA POMPEYA"],"obcn":"","nearby_distance":1000.0},{"station_id":"303","name":"238 - RIVERA","physical_configuration":"SMARTLITMAPFRAME","lat":-34.5577145,"lon":-58.4626871,"altitude":0.0,"address":"2583 Rivera, Pedro I., Dr.","post_code":"1111","capacity":20,"rental_methods":["KEY","TRANSITCARD","PHONE"],"groups":["BELGRANO"],"obcn":"","nearby_distance":1000.0},{"station_id":"304","name":"395 - Agronomia II","physical_configuration":"SMARTLITMAPFRAME","lat":-34.589409,"lon":-58.484204,"altitude":0.0,"address":"De Los Incas Av. & De Los Constituyentes Av.","post_code":"1111","capacity":15,"rental_methods":["KEY","TRANSITCARD","PHONE"],"groups":["AGRONOMIA"],"obcn":"","nearby_distance":1000.0},{"station_id":"305","name":"398 - Rojas","physical_configuration":"SMARTLITMAPFRAME","lat":-34.612684,"lon":-58.44487,"altitude":0.0,"address":"731 Rojas","post_code":"1111","capacity":16,"rental_methods":["KEY","TRANSITCARD","PHONE"],"groups":["CABALLITO"],"obcn":"","nearby_distance":1000.0},{"station_id":"306","name":"380 - Paysandu y Galicia","physical_configuration":"SMARTLITMAPFRAME","lat":-34.608465,"lon":-58.45585,"altitude":0.0,"address":"1220 GALICIA","post_code":"11111","capacity":20,"rental_methods":["KEY","TRANSITCARD","PHONE"],"groups":["CABALLITO"],"obcn":"","nearby_distance":1000.0},{"station_id":"307","name":"341 - Comuna 4","physical_configuration":"SMARTLITMAPFRAME","lat":-34.6507572,"lon":-58.4245794,"altitude":0.0,"address":"Del barco la centenera 2914","cross_street":"Corrales","post_code":"11111","capacity":16,"rental_methods":["KEY","TRANSITCARD","PHONE"],"groups":["NUEVA POMPEYA"],"obcn":"","nearby_distance":1000.0},{"station_id":"308","name":"251 - Solar de la Abadía","physical_configuration":"SMARTLITMAPFRAME","lat":-34.567639,"lon":-58.436847,"altitude":0.0,"address":"Maure 1819","post_code":"11111","capacity":20,"rental_methods":["KEY","TRANSITCARD","PHONE"],"groups":["PALERMO"],"obcn":"","nearby_distance":1000.0},{"station_id":"309","name":"298 - IRALA","physical_configuration":"SMARTLITMAPFRAME","lat":-34.6350001,"lon":-58.367059,"altitude":0.0,"address":"Irala 695","post_code":"11111","capacity":20,"rental_methods":["KEY","TRANSITCARD","PHONE"],"groups":["BARRACAS"],"obcn":"","nearby_distance":1000.0},{"station_id":"310","name":"356 - Plaza Sergio Karakachoff","physical_configuration":"SMARTLITMAPFRAME","lat":-34.63819,"lon":-58.37747,"altitude":0.0,"address":"brandsen y Herrera","post_code":"11111","capacity":16,"rental_methods":["KEY","TRANSITCARD","PHONE"],"groups":["BARRACAS"],"obcn":"","nearby_distance":1000.0},{"station_id":"311","name":"213 - Hospital Alvear","physical_configuration":"SMARTLITMAPFRAME","lat":-34.5972098,"lon":-58.47421143,"altitude":0.0,"address":"Av. Warnes 2626","post_code":"11111","capacity":20,"rental_methods":["KEY","TRANSITCARD","PHONE"],"groups":["PATERNAL"],"obcn":"","nearby_distance":1000.0},{"station_id":"312","name":"311 - CONCORDIA","physical_configuration":"SMARTLITMAPFRAME","lat":-34.629028,"lon":-58.4769111,"altitude":0.0,"address":"3396 Bogota","post_code":"1111","capacity":20,"rental_methods":["KEY","TRANSITCARD","PHONE"],"groups":["FLORESTA"],"obcn":"","nearby_distance":1000.0},{"station_id":"313","name":"291 - UNIVERSIDAD DE BELGRANO","physical_configuration":"SMARTLITMAPFRAME","lat":-34.565003,"lon":-58.4449536,"altitude":0.0,"address":"1920 Zabala","post_code":"1111","capacity":20,"rental_methods":["KEY","TRANSITCARD","PHONE"],"groups":["PALERMO"],"obcn":"","nearby_distance":1000.0},{"station_id":"314","name":"212 - SOR JUANA","physical_configuration":"SMARTLITMAPFRAME","lat":-34.61047,"lon":-58.4602399,"altitude":0.0,"address":"Galicia 1630","post_code":"1111","capacity":14,"rental_methods":["KEY","TRANSITCARD","PHONE"],"groups":["CABALLITO"],"obcn":"","nearby_distance":1000.0},{"station_id":"316","name":"205 - SAN MARTIN","physical_configuration":"SMARTLITMAPFRAME","lat":-34.605638,"lon":-58.4533609,"altitude":0.0,"address":"1471 Cucha Cucha","post_code":"1111","capacity":16,"rental_methods":["KEY","TRANSITCARD","PHONE"],"groups":["VILLA CRESPO"],"obcn":"","nearby_distance":1000.0},{"station_id":"317","name":"220 - GIRIBONE","physical_configuration":"SMARTLITMAPFRAME","lat":-34.5797368,"lon":-58.4578146,"altitude":0.0,"address":"1101 Giribone","post_code":"1111","capacity":20,"rental_methods":["KEY","TRANSITCARD","PHONE"],"groups":["CHACARITA"],"obcn":"","nearby_distance":1000.0},{"station_id":"318","name":"285 - ESPINOSA","physical_configuration":"SMARTLITMAPFRAME","lat":-34.603935,"lon":-58.45732,"altitude":0.0,"address":"1785 Espinosa","post_code":"1111","capacity":20,"rental_methods":["KEY","TRANSITCARD","PHONE"],"groups":["VILLA CRESPO"],"obcn":"","nearby_distance":1000.0},{"station_id":"319","name":"329 - PASO Y LAVALLE","physical_configuration":"SMARTLITMAPFRAME","lat":-34.6036,"lon":-58.4036,"altitude":0.0,"address":"486 Paso","post_code":"1111","capacity":20,"rental_methods":["KEY","TRANSITCARD","PHONE"],"groups":["BALVANERA"],"obcn":"","nearby_distance":1000.0},{"station_id":"320","name":"364 - Carranza Y Gorriti","physical_configuration":"SMARTLITMAPFRAME","lat":-34.584063,"lon":-58.440137,"altitude":0.0,"address":"1501 Carranza, Angel Justiniano","post_code":"1111","capacity":20,"rental_methods":["KEY","TRANSITCARD","PHONE"],"groups":["PALERMO"],"obcn":"","nearby_distance":1000.0},{"station_id":"321","name":"246 - EDUARDO OLIVERA","physical_configuration":"SMARTLITMAPFRAME","lat":-34.561851,"lon":-58.444754,"altitude":0.0,"address":"1631 Campos, Luis M. Av.","post_code":"1111","capacity":16,"rental_methods":["KEY","TRANSITCARD","PHONE"],"groups":["BELGRANO"],"obcn":"","nearby_distance":1000.0},{"station_id":"322","name":"289 - MONTAÑESES","physical_configuration":"SMARTLITMAPFRAME","lat":-34.5513269,"lon":-58.4541858,"altitude":0.0,"address":"2786 Montañeses","post_code":"1111","capacity":20,"rental_methods":["KEY","TRANSITCARD","PHONE"],"groups":["BELGRANO"],"obcn":"","nearby_distance":1000.0},{"station_id":"323","name":"240 - ECHEVERRIA","physical_configuration":"SMARTLITMAPFRAME","lat":-34.565275,"lon":-58.459401,"altitude":0.0,"address":"1981 Vidal","post_code":"1111","capacity":24,"rental_methods":["KEY","TRANSITCARD","PHONE"],"groups":["BELGRANO"],"obcn":"","nearby_distance":1000.0},{"station_id":"324","name":"280 - JURAMENTO","physical_configuration":"SMARTLITMAPFRAME","lat":-34.578933,"lon":-58.4840556,"altitude":0.0,"address":"5209 Juramento","post_code":"1111","capacity":16,"rental_methods":["KEY","TRANSITCARD","PHONE"],"groups":["VILLA URQUIZA"],"obcn":"","nearby_distance":1000.0},{"station_id":"325","name":"342 - SAENZ","physical_configuration":"SMARTLITMAPFRAME","lat":-34.6501,"lon":-58.41626,"altitude":0.0,"address":"Sáenz 884","post_code":"1111","capacity":16,"rental_methods":["KEY","TRANSITCARD","PHONE"],"groups":["NUEVA POMPEYA"],"obcn":"","nearby_distance":1000.0},{"station_id":"327","name":"366 - VILLA OLÍMPICA","physical_configuration":"SMARTLITMAPFRAME","lat":-34.676711,"lon":-58.4542718,"altitude":0.0,"address":"Escalada 4347","cross_street":"Villa olímpica","post_code":"1111","capacity":16,"rental_methods":["KEY","TRANSITCARD","PHONE"],"groups":["NUEVA POMPEYA"],"obcn":"","nearby_distance":1000.0},{"station_id":"328","name":"043 - Plaza Houssay","physical_configuration":"SMARTLITMAPFRAME","lat":-34.598549,"lon":-58.397354,"altitude":0.0,"address":"Cordoba Av. & Uriburu Jose E., Pres.","post_code":"1111","capacity":16,"rental_methods":["KEY","TRANSITCARD","PHONE"],"groups":["RECOLETA"],"obcn":"","nearby_distance":1.0},{"station_id":"329","name":"100 - Plaza Gurruchaga","physical_configuration":"SMARTLITMAPFRAME","lat":-34.5931053,"lon":-58.4351681,"altitude":0.0,"address":"1078 Gurruchaga","post_code":"1111","capacity":20,"rental_methods":["KEY","TRANSITCARD","PHONE"],"groups":["VILLA CRESPO"],"obcn":"","nearby_distance":1.0},{"station_id":"330","name":"148 - Paternal","physical_configuration":"SMARTLITMAPFRAME","lat":-34.6008267,"lon":-58.4699818,"altitude":0.0,"address":"1718 12 De Octubre","post_code":"1111","capacity":16,"rental_methods":["KEY","TRANSITCARD","PHONE"],"groups":["PATERNAL"],"obcn":"","nearby_distance":1.0},{"station_id":"332","name":"202 - Nogoya Y Argerich","physical_configuration":"SMARTLITMAPFRAME","lat":-34.602133,"lon":-58.490891,"altitude":0.0,"address":"3018 Argerich","post_code":"1111","capacity":16,"rental_methods":["KEY","TRANSITCARD","PHONE"],"groups":["VILLA DEL PARQUE"],"obcn":"","nearby_distance":1.0},{"station_id":"333","name":"203 - Beiro","physical_configuration":"SMARTLITMAPFRAME","lat":-34.6004332,"lon":-58.5036238,"altitude":0.0,"address":"Beiro 3572, CABA","post_code":"1111","capacity":20,"rental_methods":["KEY","TRANSITCARD","PHONE"],"groups":["DEVOTO"],"obcn":"","nearby_distance":1000.0},{"station_id":"335","name":"206 - Galicia","physical_configuration":"SMARTLITMAPFRAME","lat":-34.615852,"lon":-58.470907,"altitude":0.0,"address":"2502 Galicia","post_code":"1111","capacity":20,"rental_methods":["KEY","TRANSITCARD","PHONE"],"groups":["VILLA GENERAL MITRE"],"obcn":"","nearby_distance":1000.0},{"station_id":"336","name":"207 - PLAZA ARENALES","physical_configuration":"SMARTLITMAPFRAME","lat":-34.5999173,"lon":-58.5114159,"altitude":0.0,"address":"Nueva York y Chivilcoy","post_code":"1111","capacity":27,"rental_methods":["KEY","TRANSITCARD","PHONE"],"groups":["DEVOTO"],"obcn":"","nearby_distance":1.0},{"station_id":"337","name":"208 - Segui","physical_configuration":"SMARTLITMAPFRAME","lat":-34.5985,"lon":-58.4613,"altitude":0.0,"address":"2419 Segui","post_code":"1111","capacity":16,"rental_methods":["KEY","TRANSITCARD","PHONE"],"groups":["PATERNAL"],"obcn":"","nearby_distance":1000.0},{"station_id":"338","name":"210 - Terrero","physical_configuration":"SMARTLITMAPFRAME","lat":-34.602931,"lon":-58.479421,"altitude":0.0,"address":"3211 Terrero","post_code":"1111","capacity":16,"rental_methods":["KEY","TRANSITCARD","PHONE"],"groups":["VILLA DEL PARQUE"],"obcn":"","nearby_distance":1000.0},{"station_id":"339","name":"211 - ARANGUREN Y SEGUI","physical_configuration":"SMARTLITMAPFRAME","lat":-34.61938,"lon":-58.45471,"altitude":0.0,"address":"1608 Aranguren, Juan F., Dr.","post_code":"1111","capacity":16,"rental_methods":["KEY","TRANSITCARD","PHONE"],"groups":["CABALLITO"],"obcn":"","nearby_distance":1000.0},{"station_id":"340","name":"214 - Flores","physical_configuration":"SMARTLITMAPFRAME","lat":-34.626242,"lon":-58.467329,"altitude":0.0,"address":"2620 Bogota","post_code":"1111","capacity":12,"rental_methods":["KEY","TRANSITCARD","PHONE"],"groups":["FLORES"],"obcn":"","nearby_distance":1000.0},{"station_id":"341","name":"216 - Margariños Cervantes y Argerich","physical_configuration":"SMARTLITMAPFRAME","lat":-34.6142336,"lon":-58.4813858,"altitude":0.0,"address":"3011 Magariños Cervantes, A.","post_code":"1111","capacity":16,"rental_methods":["KEY","TRANSITCARD","PHONE"],"groups":["VILLA SANTA RITA"],"obcn":"","nearby_distance":1.0},{"station_id":"342","name":"218 - Campana","physical_configuration":"SMARTLITMAPFRAME","lat":-34.616813,"lon":-58.484297,"altitude":0.0,"address":"1523 Campana","post_code":"1111","capacity":20,"rental_methods":["KEY","TRANSITCARD","PHONE"],"groups":["VILLA SANTA RITA"],"obcn":"","nearby_distance":1.0},{"station_id":"343","name":"219 - Parque Chacabuco II","physical_configuration":"SMARTLITMAPFRAME","lat":-34.6357272,"lon":-58.4411639,"altitude":0.0,"address":"Av. Asamblea & Faraday","post_code":"1111","capacity":20,"rental_methods":["KEY","TRANSITCARD","PHONE"],"groups":["PARQUE CHACABUCO"],"obcn":"","nearby_distance":1000.0},{"station_id":"345","name":"226 - Parque La Paternal","physical_configuration":"SMARTLITMAPFRAME","lat":-34.5947762,"lon":-58.4750615,"altitude":0.0,"address":"Zaballa y Chorroarín","post_code":"1111","capacity":20,"rental_methods":["KEY","TRANSITCARD","PHONE"],"groups":["PATERNAL"],"obcn":"","nearby_distance":1000.0},{"station_id":"347","name":"230 - Parque Las Heras II","physical_configuration":"SMARTLITMAPFRAME","lat":-34.5834356,"lon":-58.4065391,"altitude":0.0,"address":"3120 Pacheco de Melo","post_code":"1111","capacity":20,"rental_methods":["KEY","TRANSITCARD","PHONE"],"groups":["PALERMO"],"obcn":"","nearby_distance":1.0},{"station_id":"348","name":"231 - Margariños Cervantes","physical_configuration":"SMARTLITMAPFRAME","lat":-34.610482,"lon":-58.474369,"altitude":0.0,"address":"2465 Margariños Cervantes","post_code":"1111","capacity":16,"rental_methods":["KEY","TRANSITCARD","PHONE"],"groups":["VILLA GENERAL MITRE"],"obcn":"","nearby_distance":1.0},